time,Altitude,BatteryVolts,GPSFix,Latitude,Longitude,NumberOfSatellites,Pitch,Roll,VelocityX,VelocityY,VelocityZ,Yaw,blerDl,blerUl,brateDl,brateUl,buff,cc,cfo,mcsDl,mcsUl,num,pci,pl,rsrp,snr,ta_us,turbo
2024-10-22 22:57:22.977903,-0.0170000000,12.5870000000,6.0000000000,35.7274823000,-78.6962747000,10.0000000000,0.0010318114,0.0012635383,-0.0100000000,0.0100000000,0.0000000000,0.0213554493,0.0000000000,0.0000000000,3800.0000000000,27000.0000000000,0.0000000000,0.0000000000,2.7,3.0000000000,22.0000000000,3.1840027865,1.0000000000,47.0000000000,-47.0000000000,80.0000000000,0.0000000000,1.0000000000
2024-10-22 22:57:23.977704,-0.0170000000,12.5870000000,6.0000000000,35.7274823000,-78.6962747000,10.0000000000,0.0010281466,0.0012707008,-0.0100000000,0.0100000000,0.0000000000,0.0215162147,0.0000000000,0.0000000000,0.0000000000,0.0000000000,0.0000000000,0.0000000000,-497u,0.0000000000,0.0000000000,4.1812811630,1.0000000000,45.0000000000,-45.0000000000,84.0000000000,0.0000000000,0.0000000000
2024-10-22 22:57:24.977815,-0.0170000000,12.5870000000,6.0000000000,35.7274823000,-78.6962747000,10.0000000000,0.0010329918,0.0012770537,-0.0100000000,0.0100000000,0.0000000000,0.0216566004,0.0000000000,0.0000000000,21000000.0000000000,652000.0000000000,989.0000000000,0.0000000000,-0.014,26.0000000000,19.0000000000,5.1788184384,1.0000000000,45.0000000000,-45.0000000000,70.0000000000,0.0000000000,1.0000000000
2024-10-22 22:57:25.977802,-0.0170000000,12.5870000000,6.0000000000,35.7274823000,-78.6962747000,10.0000000000,0.0010363583,0.0012645691,-0.0100000000,0.0100000000,0.0000000000,0.0217788586,0.0000000000,0.0000000000,33000000.0000000000,752000.0000000000,0.0000000000,0.0000000000,-0.033,27.0000000000,22.0000000000,6.1766680862,1.0000000000,45.0000000000,-45.0000000000,61.0000000000,0.0000000000,1.0000000000
2024-10-22 22:57:26.977762,-0.0137027051,12.5870000000,6.0000000000,35.7274823000,-78.6962747000,10.0000000000,0.0010536205,0.0012616832,-0.0100000000,0.0100000000,0.0000000000,0.0218948587,0.0000000000,0.0000000000,32000000.0000000000,810000.0000000000,0.0000000000,0.0000000000,-0.027,27.0000000000,21.0000000000,7.1735418388,1.0000000000,45.0000000000,-45.0000000000,61.0000000000,0.0000000000,1.0000000000
2024-10-22 22:57:27.977782,0.0020000000,12.5870000000,6.0000000000,35.7274823000,-78.6962747000,10.0000000000,0.0010786234,0.0012857514,-0.0082884179,0.0082884179,0.0000000000,0.0220121082,0.0000000000,0.0000000000,33000000.0000000000,776000.0000000000,1300.0000000000,0.0000000000,-0.029,27.0000000000,22.0000000000,8.1711582107,1.0000000000,45.0000000000,-45.0000000000,61.0000000000,0.0000000000,1.0000000000
2024-10-22 22:57:28.977683,0.0020000000,12.5870000000,6.0000000000,35.7274823000,-78.6962747000,10.0000000000,0.0012556128,0.0014639216,0.0000000000,0.0000000000,0.0000000000,0.0221447548,0.0000000000,0.0000000000,33000000.0000000000,784000.0000000000,0.0000000000,0.0000000000,-0.028,27.0000000000,22.0000000000,9.1681168971,1.0000000000,45.0000000000,-45.0000000000,61.0000000000,0.0000000000,1.0000000000
2024-10-22 22:57:29.977769,0.0020000000,12.5870000000,6.0000000000,35.7274823000,-78.6962747000,10.0000000000,0.0015400998,0.0017451024,0.0000000000,0.0000000000,0.0000000000,0.0222752614,0.0000000000,0.0000000000,33000000.0000000000,783000.0000000000,1200.0000000000,0.0000000000,-0.039,27.0000000000,22.0000000000,10.1657530728,1.0000000000,45.0000000000,-45.0000000000,61.0000000000,0.0000000000,1.0000000000
2024-10-22 22:57:30.977794,0.0020000000,12.5870000000,6.0000000000,35.7274823000,-78.6962747000,10.0000000000,0.0018553615,0.0020592588,0.0000000000,0.0000000000,0.0000000000,0.0224191908,0.0000000000,0.0000000000,33000000.0000000000,811000.0000000000,989.0000000000,0.0000000000,-0.036000000000000004,27.0000000000,22.0000000000,11.1623342343,1.0000000000,45.0000000000,-45.0000000000,61.0000000000,0.0000000000,1.0000000000
2024-10-22 22:57:31.977745,0.0020000000,12.5870000000,6.0000000000,35.7274823000,-78.6962747000,10.0000000000,0.0021755760,0.0023924902,0.0000000000,0.0000000000,0.0000000000,0.0225757945,0.0000000000,0.0000000000,33000000.0000000000,794000.0000000000,1000.0000000000,0.0000000000,-0.037,27.0000000000,22.0000000000,12.1601224897,1.0000000000,45.0000000000,-45.0000000000,60.0000000000,0.0000000000,1.0000000000
2024-10-22 22:57:32.977771,0.0709518203,12.5870000000,6.0000000000,35.7274823000,-78.6962747000,10.0000000000,0.0016403691,0.0018174865,0.0000000000,0.0000000000,-0.1970052009,0.0227289522,0.0000000000,0.0000000000,33000000.0000000000,815000.0000000000,0.0000000000,0.0000000000,-0.035,27.0000000000,22.0000000000,13.1588751620,1.0000000000,45.0000000000,-45.0000000000,61.0000000000,0.0000000000,1.0000000000
2024-10-22 22:57:33.977890,0.6643723966,12.5870000000,6.0000000000,35.7274823157,-78.6962747315,10.0000000000,-0.0017083213,-0.0017030236,0.0000000000,0.0000000000,-1.3392238689,0.0226802822,0.0000000000,0.0000000000,33000000.0000000000,794000.0000000000,0.0000000000,0.0000000000,-0.036000000000000004,26.0000000000,22.0000000000,14.1574982046,1.0000000000,45.0000000000,-45.0000000000,61.0000000000,0.0000000000,1.0000000000
2024-10-22 22:57:34.977720,2.2533134302,12.5870000000,6.0000000000,35.7274824155,-78.6962749155,10.0000000000,0.0032672515,0.0035801498,-0.0015504999,0.0015504999,-1.9707824946,0.0194981082,0.0000000000,0.0000000000,33000000.0000000000,791000.0000000000,0.0000000000,0.0000000000,-0.041,27.0000000000,22.0000000000,15.1550499916,1.0000000000,45.0000000000,-45.0000000000,61.0000000000,0.0000000000,1.0000000000
2024-10-22 22:57:35.977832,4.6451848225,12.5870000000,6.0000000000,35.7274825000,-78.6962750000,10.0000000000,0.0040098494,0.0043939522,-0.0100000000,0.0115349521,-2.5061854311,0.0045898395,0.0000000000,0.0000000000,33000000.0000000000,791000.0000000000,0.0000000000,0.0000000000,-0.028,26.0000000000,22.0000000000,16.1534952095,1.0000000000,45.0000000000,-45.0000000000,61.0000000000,0.0000000000,1.0000000000
2024-10-22 22:57:36.977667,7.1771611792,12.5870000000,6.0000000000,35.7274825152,-78.6962750000,10.0000000000,0.0037393001,0.0038585740,-0.0115218622,0.0200000000,-2.4269562756,0.0043414828,0.0000000000,0.0000000000,33000000.0000000000,810000.0000000000,0.0000000000,0.0000000000,-0.028,27.0000000000,22.0000000000,17.1521862207,1.0000000000,45.0000000000,-45.0000000000,61.0000000000,0.0000000000,1.0000000000
2024-10-22 22:57:37.977824,9.6682563132,12.5870000000,6.0000000000,35.7274826000,-78.6962750000,10.0000000000,0.0043188638,0.0041212005,-0.0200000000,0.0200000000,-2.4115032473,0.0044778694,0.0000000000,0.0000000000,33000000.0000000000,763000.0000000000,660.0000000000,0.0000000000,-0.035,26.0000000000,22.0000000000,18.1503247335,1.0000000000,45.0000000000,-45.0000000000,61.0000000000,0.0000000000,1.0000000000
2024-10-22 22:57:38.977741,12.1481816819,12.5870000000,6.0000000000,35.7274825852,-78.6962749852,10.0000000000,0.0030213786,0.0032015894,-0.0185169003,0.0185169003,-2.4214830997,0.0041479200,0.0000000000,0.0000000000,33000000.0000000000,787000.0000000000,0.0000000000,0.0000000000,-0.033,27.0000000000,22.0000000000,19.1483099687,1.0000000000,45.0000000000,-45.0000000000,61.0000000000,0.0000000000,1.0000000000
2024-10-22 22:57:39.977641,14.6377206871,12.5870000000,6.0000000000,35.7274824853,-78.6962748853,10.0000000000,0.0024821919,0.0026689249,-0.0085333843,0.0085333843,-2.4314666157,0.0044486318,0.0000000000,0.0000000000,33000000.0000000000,784000.0000000000,0.0000000000,0.0000000000,-0.031,27.0000000000,22.0000000000,20.1466615674,1.0000000000,45.0000000000,-45.0000000000,61.0000000000,0.0000000000,1.0000000000
2024-10-22 22:57:40.977851,17.1158854205,12.5870000000,6.0000000000,35.7274824000,-78.6962748000,10.0000000000,0.0027032135,0.0025673634,0.0000000000,0.0000000000,-2.4428974013,0.0042799022,0.0000000000,0.0000000000,32000000.0000000000,785000.0000000000,991.0000000000,0.0000000000,-0.031,27.0000000000,21.0000000000,21.1448700643,1.0000000000,45.0000000000,-45.0000000000,62.0000000000,0.0000000000,1.0000000000
2024-10-22 22:57:41.977731,19.6098832781,12.5870000000,6.0000000000,35.7274824000,-78.6962748143,10.0000000000,0.0032341510,0.0035322520,-0.0014303888,0.0000000000,-2.4585696112,0.0043109757,0.0000000000,0.0000000000,33000000.0000000000,776000.0000000000,0.0000000000,0.0000000000,-0.028,27.0000000000,22.0000000000,22.1430388801,1.0000000000,45.0000000000,-45.0000000000,61.0000000000,0.0000000000,1.0000000000
2024-10-22 22:57:42.977768,22.1077652169,12.5870000000,6.0000000000,35.7274824000,-78.6962749141,10.0000000000,0.0032353984,0.0045841607,-0.0100000000,0.0014144951,-2.4471710099,0.0038108035,0.0000000000,0.0000000000,33000000.0000000000,795000.0000000000,0.0000000000,0.0000000000,-0.025,27.0000000000,22.0000000000,23.1414495069,1.0000000000,45.0000000000,-45.0000000000,61.0000000000,0.0000000000,1.0000000000
2024-10-22 22:57:43.977751,24.5758796238,12.5870000000,6.0000000000,35.7274824140,-78.6962750000,10.0000000000,0.0036631448,0.0045024651,-0.0100000000,0.0114036729,-2.3682383926,0.0042874227,0.0000000000,0.0000000000,33000000.0000000000,797000.0000000000,0.0000000000,0.0000000000,-0.031,27.0000000000,22.0000000000,24.1403672895,1.0000000000,45.0000000000,-45.0000000000,61.0000000000,0.0000000000,1.0000000000
2024-10-22 22:57:44.977894,26.7765532259,12.5870000000,6.0000000000,35.7274825000,-78.6962750000,10.0000000000,0.0040112867,0.0044863753,-0.0113896945,0.0200000000,-1.9052286326,0.0040789565,0.0000000000,0.0000000000,34000000.0000000000,801000.0000000000,0.0000000000,0.0000000000,-0.027,27.0000000000,22.0000000000,25.1389694548,1.0000000000,45.0000000000,-45.0000000000,60.0000000000,0.0000000000,1.0000000000
2024-10-22 22:57:45.977698,28.3912757431,12.5870000000,6.0000000000,35.7274825137,-78.6962750000,10.0000000000,0.0038649415,0.0040411002,-0.0200000000,0.0200000000,-1.3100436140,0.0043317195,0.0000000000,0.0000000000,32000000.0000000000,811000.0000000000,0.0000000000,0.0000000000,-0.023,27.0000000000,21.0000000000,26.1371693844,1.0000000000,45.0000000000,-45.0000000000,62.0000000000,0.0000000000,1.0000000000
2024-10-22 22:57:46.977843,29.4475314590,12.5870000000,6.0000000000,35.7274826000,-78.6962750000,10.0000000000,0.0045611914,0.0038646566,-0.0200000000,0.0200000000,-0.7918165319,0.0042835760,0.0000000000,0.0000000000,34000000.0000000000,801000.0000000000,0.0000000000,0.0000000000,-0.017,27.0000000000,22.0000000000,27.1347990830,1.0000000000,45.0000000000,-45.0000000000,61.0000000000,0.0000000000,1.0000000000
2024-10-22 22:57:47.977777,29.9610515356,12.5870000000,6.0000000000,35.7274826000,-78.6962750000,10.0000000000,0.0041952438,0.0037265475,-0.0200000000,0.0200000000,-0.2462170980,0.0047386549,0.0000000000,0.0000000000,33000000.0000000000,782000.0000000000,0.0000000000,0.0000000000,-0.023,27.0000000000,22.0000000000,28.1326754607,1.0000000000,45.0000000000,-45.0000000000,61.0000000000,0.0000000000,1.0000000000
2024-10-22 22:57:48.977745,29.9773504615,12.5870000000,6.0000000000,35.7274826000,-78.6962750000,10.0000000000,0.0034532119,0.0035729179,-0.0200000000,0.0200000000,0.0295727470,0.0044198038,0.0000000000,0.0000000000,33000000.0000000000,787000.0000000000,0.0000000000,0.0000000000,-0.019,27.0000000000,22.0000000000,29.1303406624,1.0000000000,45.0000000000,-45.0000000000,61.0000000000,0.0000000000,1.0000000000
2024-10-22 22:57:49.977708,29.9530000000,12.5870000000,6.0000000000,35.7274826000,-78.6962750000,10.0000000000,0.0033012300,0.0035707112,-0.0200000000,0.0200000000,-0.0400000000,0.0043051491,0.0000000000,0.0000000000,34000000.0000000000,744000.0000000000,0.0000000000,0.0000000000,-0.029,27.0000000000,22.0000000000,30.1282708472,1.0000000000,45.0000000000,-45.0000000000,60.0000000000,0.0000000000,1.0000000000
2024-10-22 22:57:50.977748,29.9537513080,12.5870000000,6.0000000000,35.7274825875,-78.6962750000,10.0000000000,0.0026375501,0.0035191831,-0.0187478201,0.0200000000,-0.0400000000,-0.0284940578,0.0000000000,0.0000000000,32000000.0000000000,779000.0000000000,0.0000000000,0.0000000000,-0.034,27.0000000000,22.0000000000,31.1252179921,1.0000000000,45.0000000000,-45.0000000000,61.0000000000,0.0000000000,1.0000000000
2024-10-22 22:57:51.977754,29.9595873850,12.5870000000,6.0000000000,35.7274825000,-78.6962750000,10.0000000000,0.0017863409,0.0030754355,-0.0111747701,0.0188252299,-0.0376504599,-0.4172505190,0.0000000000,0.0000000000,33000000.0000000000,778000.0000000000,0.0000000000,0.0000000000,-0.024,27.0000000000,22.0000000000,32.1174770074,1.0000000000,45.0000000000,-45.0000000000,61.0000000000,0.0000000000,1.0000000000
2024-10-22 22:57:52.977798,29.9624944408,12.5870000000,6.0000000000,35.7274827895,-78.6962759381,10.0000000000,-0.0431148257,0.0165992475,0.0622266966,-0.2065689051,-0.0188418775,-1.6065856556,0.0000000000,0.0000000000,33000000.0000000000,823000.0000000000,0.0000000000,0.0000000000,-0.028,27.0000000000,22.0000000000,33.1158122487,1.0000000000,45.0000000000,-45.0000000000,61.0000000000,0.0000000000,1.0000000000
2024-10-22 22:57:53.977718,29.9511141054,12.5870000000,6.0000000000,35.7274861296,-78.6962868427,10.0000000000,-0.2941587380,0.0912673955,0.7778611446,-2.1030444649,-0.0122821077,-1.5140317726,0.0000000000,0.0000000000,32000000.0000000000,787000.0000000000,0.0000000000,0.0000000000,-0.027,27.0000000000,21.0000000000,34.1141053826,1.0000000000,45.0000000000,-45.0000000000,62.0000000000,0.0000000000,1.0000000000
2024-10-22 22:57:54.977753,29.9516635197,12.5870000000,6.0000000000,35.7274965375,-78.6963213285,10.0000000000,-0.2888572213,-0.0124566482,1.4869184259,-4.0438368518,-0.0277567978,-1.1634388764,0.0000000000,0.0000000000,33000000.0000000000,797000.0000000000,989.0000000000,0.0000000000,-0.027,27.0000000000,22.0000000000,35.1121601080,1.0000000000,45.0000000000,-45.0000000000,62.0000000000,0.0000000000,1.0000000000
2024-10-22 22:57:55.977821,29.9490000000,12.5870000000,6.0000000000,35.7275112711,-78.6963699674,10.0000000000,-0.2156220504,0.0439693922,1.7077483539,-4.4910312462,-0.0111069077,-1.4301125462,0.0000000000,0.0000000000,31000000.0000000000,784000.0000000000,0.0000000000,0.0000000000,-0.014,27.0000000000,21.0000000000,36.1106907695,1.0000000000,46.0000000000,-46.0000000000,66.0000000000,0.0000000000,1.0000000000
2024-10-22 22:57:56.977730,29.9500918008,12.5870000000,6.0000000000,35.7275272687,-78.6964212647,10.0000000000,-0.2190024007,0.0124988610,1.7689081992,-4.6687344067,-0.0189081992,-1.3164113766,0.0000000000,0.0000000000,33000000.0000000000,774000.0000000000,0.0000000000,0.0000000000,-0.006500000000000001,27.0000000000,22.0000000000,37.1091800832,1.0000000000,47.0000000000,-47.0000000000,72.0000000000,0.0000000000,1.0000000000
2024-10-22 22:57:57.977735,29.9598632738,12.5870000000,6.0000000000,35.7275434265,-78.6964739868,10.0000000000,-0.2162048977,0.0166672493,1.7621581844,-4.7421581844,-0.0089209078,-1.3215285221,0.0000000000,0.0000000000,33000000.0000000000,755000.0000000000,933.0000000000,0.0000000000,-0.0034,27.0000000000,22.0000000000,38.1079092215,1.0000000000,48.0000000000,-48.0000000000,79.0000000000,0.0000000000,1.0000000000
2024-10-22 22:57:58.977756,29.9675313877,12.5870000000,6.0000000000,35.7275594111,-78.6965266327,10.0000000000,-0.2097387204,0.0223377245,1.7768116738,-4.7546861230,0.0000000000,-1.3644566293,0.0000000000,0.0000000000,32000000.0000000000,809000.0000000000,1000.0000000000,0.0000000000,-344u,27.0000000000,22.0000000000,39.1062775391,1.0000000000,49.0000000000,-49.0000000000,83.0000000000,0.0000000000,1.0000000000
2024-10-22 22:57:59.977837,29.9724200776,12.5870000000,6.0000000000,35.7275754593,-78.6965794715,10.0000000000,-0.2063777812,0.0148827262,1.7500000000,-4.7089498059,0.0000000000,-1.3179883266,0.0000000000,0.0000000000,33000000.0000000000,813000.0000000000,1200.0000000000,0.0000000000,-272u,26.0000000000,22.0000000000,40.1050194106,1.0000000000,50.0000000000,-50.0000000000,83.0000000000,0.0000000000,1.0000000000
2024-10-22 22:58:00.977708,29.9762070884,12.5870000000,6.0000000000,35.7275912464,-78.6966315050,10.0000000000,-0.2075524795,0.0221166980,1.7510354419,-4.6979291162,0.0000000000,-1.3469666389,0.0000000000,0.0000000000,33000000.0000000000,833000.0000000000,1100.0000000000,0.0000000000,-243u,27.0000000000,22.0000000000,41.1035441904,1.0000000000,51.0000000000,-51.0000000000,83.0000000000,0.0000000000,1.0000000000
2024-10-22 22:58:01.977766,29.9782045243,12.5870000000,6.0000000000,35.7276071157,-78.6966836074,10.0000000000,-0.2061334585,0.0194806751,1.7600000000,-4.6789773786,0.0000000000,-1.3373444600,0.0000000000,0.0000000000,31000000.0000000000,783000.0000000000,0.0000000000,0.0000000000,-232u,26.0000000000,21.0000000000,42.1022621399,1.0000000000,51.0000000000,-51.0000000000,82.0000000000,0.0000000000,1.0000000000
2024-10-22 22:58:02.977745,29.9801009718,12.5870000000,6.0000000000,35.7276228853,-78.6967354202,10.0000000000,-0.2082845021,0.0198958362,1.7600000000,-4.6700000000,0.0000000000,-1.3344943243,0.0000000000,0.0000000000,34000000.0000000000,819000.0000000000,0.0000000000,0.0000000000,-273u,27.0000000000,22.0000000000,43.1009717594,1.0000000000,52.0000000000,-52.0000000000,82.0000000000,0.0000000000,1.0000000000
2024-10-22 22:58:03.977845,29.9811993062,12.5870000000,6.0000000000,35.7276385745,-78.6967870521,10.0000000000,-0.2088280521,0.0212152603,1.7609965310,-4.6709965310,0.0000000000,-1.3415626192,0.0000000000,0.0000000000,33000000.0000000000,880000.0000000000,0.0000000000,0.0000000000,-469u,27.0000000000,22.0000000000,44.0996531036,1.0000000000,53.0000000000,-53.0000000000,82.0000000000,0.0000000000,1.0000000000
2024-10-22 22:58:04.977853,29.9830000000,12.5870000000,6.0000000000,35.7276543568,-78.6968387013,10.0000000000,-0.2096013729,0.0211749040,1.7700000000,-4.6790208671,0.0000000000,-1.3359286553,0.0000000000,0.0000000000,33000000.0000000000,891000.0000000000,0.0000000000,0.0000000000,-373u,27.0000000000,21.0000000000,45.0979132894,1.0000000000,53.0000000000,-53.0000000000,82.0000000000,0.0000000000,1.0000000000
2024-10-22 22:58:05.977784,29.9830000000,12.5870000000,6.0000000000,35.7276702245,-78.6968906762,10.0000000000,-0.2042279278,0.0207058591,1.7700000000,-4.6690411928,0.0000000000,-1.3381414795,0.0000000000,0.0000000000,32000000.0000000000,823000.0000000000,0.0000000000,0.0000000000,-301u,27.0000000000,21.0000000000,46.0958807203,1.0000000000,54.0000000000,-54.0000000000,81.0000000000,0.0000000000,1.0000000000
2024-10-22 22:58:06.978011,29.9829056003,12.5870000000,6.0000000000,35.7276860915,-78.6969424899,10.0000000000,-0.2063540595,0.0214633802,1.7690560031,-4.6590560031,0.0000000000,-1.3397978491,0.0000000000,0.0000000000,33000000.0000000000,768000.0000000000,0.0000000000,0.0000000000,-586u,26.0000000000,22.0000000000,47.0943996877,1.0000000000,54.0000000000,-54.0000000000,81.0000000000,0.0000000000,1.0000000000
2024-10-22 22:58:07.977744,29.9820000000,12.5870000000,6.0000000000,35.7277018566,-78.6969941753,10.0000000000,-0.2052300771,0.0212570601,1.7600000000,-4.6500000000,0.0000000000,-1.3386683968,0.0000000000,0.0000000000,32000000.0000000000,776000.0000000000,0.0000000000,0.0000000000,-468u,27.0000000000,22.0000000000,48.0921870839,1.0000000000,55.0000000000,-55.0000000000,81.0000000000,0.0000000000,1.0000000000
2024-10-22 22:58:08.977720,29.9820905587,12.5870000000,6.0000000000,35.7277176308,-78.6970458909,10.0000000000,-0.2073965834,0.0218108068,1.7609055869,-4.6500000000,0.0000000000,-1.3383974794,0.0000000000,0.0000000000,33000000.0000000000,796000.0000000000,933.0000000000,0.0000000000,-207u,27.0000000000,22.0000000000,49.0905586851,1.0000000000,55.0000000000,-55.0000000000,81.0000000000,0.0000000000,1.0000000000
2024-10-22 22:58:09.977687,29.9829109217,12.5870000000,6.0000000000,35.7277334074,-78.6970975964,10.0000000000,-0.2043766105,0.0216559641,1.7700000000,-4.6508907835,0.0000000000,-1.3387293831,0.0000000000,0.0000000000,33000000.0000000000,780000.0000000000,0.0000000000,0.0000000000,4.2u,27.0000000000,22.0000000000,50.0890783484,1.0000000000,56.0000000000,-56.0000000000,80.0000000000,0.0000000000,1.0000000000
2024-10-22 22:58:10.977724,29.9820874833,12.5870000000,6.0000000000,35.7277491822,-78.6971491404,10.0000000000,-0.2096578738,0.0219368596,1.7700000000,-4.6600000000,0.0000000000,-1.3381116107,0.0000000000,0.0000000000,33000000.0000000000,770000.0000000000,0.0000000000,0.0000000000,-11u,27.0000000000,22.0000000000,51.0874832758,1.0000000000,56.0000000000,-56.0000000000,80.0000000000,0.0000000000,1.0000000000
2024-10-22 22:58:11.977700,29.9830000000,12.5870000000,6.0000000000,35.7277649699,-78.6972009630,10.0000000000,-0.2046043915,0.0216353360,1.7700000000,-4.6591384126,0.0000000000,-1.3387414234,0.0000000000,0.0000000000,33000000.0000000000,748000.0000000000,0.0000000000,0.0000000000,-246u,27.0000000000,22.0000000000,52.0861587426,1.0000000000,56.0000000000,-56.0000000000,80.0000000000,0.0000000000,1.0000000000
2024-10-22 22:58:12.977679,29.9830000000,12.5870000000,6.0000000000,35.7277808365,-78.6972526816,10.0000000000,-0.2077787379,0.0223652763,1.7700000000,-4.6500000000,0.0000000000,-1.3385117840,0.0000000000,0.0000000000,33000000.0000000000,764000.0000000000,933.0000000000,0.0000000000,-242u,27.0000000000,22.0000000000,53.0845870173,1.0000000000,57.0000000000,-57.0000000000,80.0000000000,0.0000000000,1.0000000000
2024-10-22 22:58:13.977764,29.9830000000,12.5870000000,6.0000000000,35.7277966159,-78.6973044060,10.0000000000,-0.2051764546,0.0218337423,1.7700000000,-4.6508328724,0.0000000000,-1.3384652569,0.0000000000,0.0000000000,33000000.0000000000,758000.0000000000,0.0000000000,0.0000000000,-153u,27.0000000000,22.0000000000,54.0832872399,1.0000000000,57.0000000000,-57.0000000000,79.0000000000,0.0000000000,1.0000000000
2024-10-22 22:58:14.977817,29.9829183333,12.5870000000,6.0000000000,35.7278123903,-78.6973560385,10.0000000000,-0.2082563465,0.0220074820,1.7700000000,-4.6600000000,0.0000000000,-1.3382759852,0.0000000000,0.0000000000,32000000.0000000000,786000.0000000000,0.0000000000,0.0000000000,-227u,27.0000000000,22.0000000000,55.0816667037,1.0000000000,58.0000000000,-58.0000000000,79.0000000000,0.0000000000,1.0000000000
2024-10-22 22:58:15.977705,29.9819213018,12.5870000000,6.0000000000,35.7278281513,-78.6974077844,10.0000000000,-0.2033728709,0.0217540920,1.7692130181,-4.6584260363,0.0000000000,-1.3391418255,0.0000000000,0.0000000000,33000000.0000000000,808000.0000000000,0.0000000000,0.0000000000,-221u,27.0000000000,22.0000000000,56.0786981872,1.0000000000,58.0000000000,-58.0000000000,79.0000000000,0.0000000000,1.0000000000
2024-10-22 22:58:16.977643,29.9810000000,12.5870000000,6.0000000000,35.7278440212,-78.6974595884,10.0000000000,-0.2072074203,0.0225381597,1.7607729375,-4.6407729375,0.0000000000,-1.3391002819,0.0000000000,0.0000000000,33000000.0000000000,749000.0000000000,1000.0000000000,0.0000000000,-1.7u,27.0000000000,22.0000000000,57.0772937531,1.0000000000,58.0000000000,-58.0000000000,79.0000000000,0.0000000000,1.0000000000
2024-10-22 22:58:17.977773,29.9810000000,12.5870000000,6.0000000000,35.7278598091,-78.6975111640,10.0000000000,-0.2054559491,0.0226455712,1.7692347443,-4.6500000000,0.0000000000,-1.3380670436,0.0000000000,0.0000000000,33000000.0000000000,795000.0000000000,0.0000000000,0.0000000000,153u,27.0000000000,22.0000000000,58.0765255736,1.0000000000,59.0000000000,-59.0000000000,78.0000000000,0.0000000000,1.0000000000
2024-10-22 22:58:18.977742,29.9810753661,12.5870000000,6.0000000000,35.7278755908,-78.6975628964,10.0000000000,-0.2083952661,0.0223842333,1.7607536606,-4.6507536606,0.0000000000,-1.3389616062,0.0000000000,0.0000000000,33000000.0000000000,787000.0000000000,0.0000000000,0.0000000000,-161u,27.0000000000,22.0000000000,59.0753660555,1.0000000000,59.0000000000,-59.0000000000,78.0000000000,0.0000000000,1.0000000000
2024-10-22 22:58:19.977733,29.9821477537,12.5870000000,6.0000000000,35.7278913746,-78.6976145490,10.0000000000,-0.2054741427,0.0224942664,1.7692612313,-4.6585224627,0.0000000000,-1.3387093094,0.0000000000,0.0000000000,33000000.0000000000,793000.0000000000,0.0000000000,0.0000000000,-267u,27.0000000000,22.0000000000,60.0738768664,1.0000000000,59.0000000000,-59.0000000000,78.0000000000,0.0000000000,1.0000000000
2024-10-22 22:58:20.977711,29.9840000000,12.5870000000,6.0000000000,35.7279072301,-78.6976664998,10.0000000000,-0.2068815590,0.0227702082,1.7607197977,-4.6407197977,0.0000000000,-1.3394389644,0.0000000000,0.0000000000,33000000.0000000000,798000.0000000000,0.0000000000,0.0000000000,-217u,27.0000000000,22.0000000000,61.0719797748,1.0000000000,59.0000000000,-59.0000000000,78.0000000000,0.0000000000,1.0000000000
2024-10-22 22:58:21.977638,29.9839296334,12.5870000000,6.0000000000,35.7279229188,-78.6977178661,10.0000000000,-0.2073039422,0.0222946232,1.7700000000,-4.6500000000,0.0000000000,-1.3381265261,0.0000000000,0.0000000000,33000000.0000000000,817000.0000000000,0.0000000000,0.0000000000,-572u,27.0000000000,22.0000000000,62.0703665631,1.0000000000,60.0000000000,-60.0000000000,78.0000000000,0.0000000000,1.0000000000
2024-10-22 22:58:22.977653,29.9830000000,12.5870000000,6.0000000000,35.7279387729,-78.6977698040,10.0000000000,-0.2058031202,0.0226082356,1.7693209278,-4.6500000000,0.0000000000,-1.3384477904,0.0000000000,0.0000000000,32000000.0000000000,792000.0000000000,989.0000000000,0.0000000000,-428u,27.0000000000,22.0000000000,63.0679072192,1.0000000000,60.0000000000,-60.0000000000,77.0000000000,0.0000000000,1.0000000000
2024-10-22 22:58:23.977701,29.9830000000,12.5870000000,6.0000000000,35.7279545607,-78.6978213775,10.0000000000,-0.2061395272,0.0220975615,1.7600000000,-4.6493286755,0.0000000000,-1.3384766213,0.0000000000,0.0000000000,33000000.0000000000,788000.0000000000,1000.0000000000,0.0000000000,-277u,27.0000000000,22.0000000000,64.0671324486,1.0000000000,60.0000000000,-60.0000000000,77.0000000000,0.0000000000,1.0000000000
2024-10-22 22:58:24.977725,29.9830653091,12.5870000000,6.0000000000,35.7279703254,-78.6978730634,10.0000000000,-0.2082634414,0.0227210828,1.7606530906,-4.6413061813,0.0000000000,-1.3382788216,0.0000000000,0.0000000000,33000000.0000000000,817000.0000000000,933.0000000000,0.0000000000,-148u,27.0000000000,22.0000000000,65.0653090645,1.0000000000,60.0000000000,-60.0000000000,77.0000000000,0.0000000000,1.0000000000
2024-10-22 22:58:25.977721,29.9840000000,12.5870000000,6.0000000000,35.7279860136,-78.6979245212,10.0000000000,-0.2097748524,0.0230433890,1.7700000000,-4.6600000000,0.0000000000,-1.3387829714,0.0000000000,0.0000000000,33000000.0000000000,796000.0000000000,1100.0000000000,0.0000000000,327u,27.0000000000,22.0000000000,66.0637472669,1.0000000000,61.0000000000,-61.0000000000,77.0000000000,0.0000000000,1.0000000000
2024-10-22 22:58:26.977713,29.9841239917,12.5870000000,6.0000000000,35.7280018857,-78.6979765176,10.0000000000,-0.2056457927,0.0224510455,1.7700000000,-4.6593800413,0.0000000000,-1.3388911305,0.0000000000,0.0000000000,33000000.0000000000,792000.0000000000,0.0000000000,0.0000000000,500u,27.0000000000,22.0000000000,67.0619958674,1.0000000000,61.0000000000,-61.0000000000,77.0000000000,0.0000000000,1.0000000000
2024-10-22 22:58:27.977729,29.9861211472,12.5870000000,6.0000000000,35.7280177571,-78.6980283377,10.0000000000,-0.2061245200,0.0225010378,1.7693942638,-4.6493942638,0.0000000000,-1.3386576549,0.0000000000,0.0000000000,33000000.0000000000,770000.0000000000,0.0000000000,0.0000000000,-22u,27.0000000000,22.0000000000,68.0605736216,1.0000000000,61.0000000000,-61.0000000000,76.0000000000,0.0000000000,1.0000000000
2024-10-22 22:58:28.977775,29.9878823561,12.5870000000,6.0000000000,35.7280335294,-78.6980800411,10.0000000000,-0.2051439699,0.0222022075,1.7600000000,-4.6405882195,0.0000000000,-1.3394107061,0.0000000000,0.0000000000,33000000.0000000000,801000.0000000000,1000.0000000000,0.0000000000,54u,27.0000000000,22.0000000000,69.0588219518,1.0000000000,61.0000000000,-61.0000000000,76.0000000000,0.0000000000,1.0000000000
2024-10-22 22:58:29.977724,29.9860000000,12.5870000000,6.0000000000,35.7280492932,-78.6981316284,10.0000000000,-0.2070717041,0.0226215441,1.7600000000,-4.6494346658,0.0000000000,-1.3385759077,0.0000000000,0.0000000000,33000000.0000000000,785000.0000000000,0.0000000000,0.0000000000,419u,27.0000000000,22.0000000000,70.0565334215,1.0000000000,62.0000000000,-62.0000000000,76.0000000000,0.0000000000,1.0000000000
2024-10-22 22:58:30.977818,29.9860000000,12.5870000000,6.0000000000,35.7280650647,-78.6981833186,10.0000000000,-0.2060948817,0.0216819402,1.7605472949,-4.6410945897,0.0000000000,-1.3380197825,0.0000000000,0.0000000000,33000000.0000000000,782000.0000000000,933.0000000000,0.0000000000,-149u,27.0000000000,22.0000000000,71.0547294873,1.0000000000,62.0000000000,-62.0000000000,76.0000000000,0.0000000000,1.0000000000
2024-10-22 22:58:31.977696,29.9860000000,12.5870000000,6.0000000000,35.7280808365,-78.6982347478,10.0000000000,-0.2096076238,0.0229310009,1.7700000000,-4.6600000000,0.0000000000,-1.3388675250,0.0000000000,0.0000000000,32000000.0000000000,785000.0000000000,989.0000000000,0.0000000000,-145u,27.0000000000,22.0000000000,72.0529444010,1.0000000000,62.0000000000,-62.0000000000,76.0000000000,0.0000000000,1.0000000000
2024-10-22 22:58:32.977695,29.9861016113,12.5870000000,6.0000000000,35.7280966078,-78.6982865368,10.0000000000,-0.2061087759,0.0223868760,1.7700000000,-4.6594919437,0.0000000000,-1.3387224924,0.0000000000,0.0000000000,33000000.0000000000,758000.0000000000,0.0000000000,0.0000000000,-55u,27.0000000000,22.0000000000,73.0508056253,1.0000000000,62.0000000000,-62.0000000000,75.0000000000,0.0000000000,1.0000000000
2024-10-22 22:58:33.977775,29.9880990825,12.5870000000,6.0000000000,35.7281124877,-78.6983383712,10.0000000000,-0.2070011766,0.0226925981,1.7695045875,-4.6495045875,0.0000000000,-1.3386091357,0.0000000000,0.0000000000,33000000.0000000000,778000.0000000000,0.0000000000,0.0000000000,100u,27.0000000000,22.0000000000,74.0495412539,1.0000000000,62.0000000000,-62.0000000000,75.0000000000,0.0000000000,1.0000000000
2024-10-22 22:58:34.977721,29.9899038764,12.5870000000,6.0000000000,35.7281283546,-78.6983901800,10.0000000000,-0.2035231025,0.0218415341,1.7600000000,-4.6404806181,0.0000000000,-1.3393361687,0.0000000000,0.0000000000,32000000.0000000000,762000.0000000000,0.0000000000,0.0000000000,-18u,27.0000000000,22.0000000000,75.0480618071,1.0000000000,63.0000000000,-63.0000000000,75.0000000000,0.0000000000,1.0000000000
2024-10-22 22:58:35.977722,29.9880000000,12.5870000000,6.0000000000,35.7281440311,-78.6984416969,10.0000000000,-0.2096151643,0.0227860571,1.7604627312,-4.6500000000,0.0000000000,-1.3386084689,0.0000000000,0.0000000000,33000000.0000000000,787000.0000000000,1100.0000000000,0.0000000000,-216u,27.0000000000,22.0000000000,76.0462731219,1.0000000000,63.0000000000,-63.0000000000,75.0000000000,0.0000000000,1.0000000000
2024-10-22 22:58:36.977753,29.9880000000,12.5870000000,6.0000000000,35.7281598139,-78.6984934256,10.0000000000,-0.2042936287,0.0216949967,1.7695510330,-4.6500000000,0.0000000000,-1.3389161402,0.0000000000,0.0000000000,33000000.0000000000,753000.0000000000,0.0000000000,0.0000000000,133u,27.0000000000,22.0000000000,77.0448966980,1.0000000000,63.0000000000,-63.0000000000,75.0000000000,0.0000000000,1.0000000000
2024-10-22 22:58:37.977732,29.9880848796,12.5870000000,6.0000000000,35.7281756705,-78.6985450984,10.0000000000,-0.2080550640,0.0223178984,1.7604243981,-4.6500000000,0.0000000000,-1.3385527172,0.0000000000,0.0000000000,33000000.0000000000,791000.0000000000,0.0000000000,0.0000000000,-28u,27.0000000000,22.0000000000,78.0424398112,1.0000000000,63.0000000000,-63.0000000000,74.0000000000,0.0000000000,1.0000000000
2024-10-22 22:58:38.977616,29.9900407873,12.5870000000,6.0000000000,35.7281914444,-78.6985968128,10.0000000000,-0.2049882045,0.0219969897,1.7695921274,-4.6500000000,0.0000000000,-1.3392211087,0.0000000000,0.0000000000,33000000.0000000000,768000.0000000000,0.0000000000,0.0000000000,-108u,27.0000000000,23.0000000000,79.0407872589,1.0000000000,63.0000000000,-63.0000000000,74.0000000000,0.0000000000,1.0000000000
2024-10-22 22:58:39.977775,29.9910000000,12.5870000000,6.0000000000,35.7282072234,-78.6986485438,10.0000000000,-0.2082639376,0.0226555858,1.7603945466,-4.6503945466,0.0000000000,-1.3399638496,0.0000000000,0.0000000000,33000000.0000000000,781000.0000000000,0.0000000000,0.0000000000,-417u,27.0000000000,22.0000000000,80.0394546644,1.0000000000,64.0000000000,-64.0000000000,74.0000000000,0.0000000000,1.0000000000
2024-10-22 22:58:40.977738,29.9909622512,12.5870000000,6.0000000000,35.7282229964,-78.6987002554,10.0000000000,-0.2032896574,0.0214866441,1.7696225124,-4.6596225124,0.0000000000,-1.3373403944,0.0000000000,0.0000000000,33000000.0000000000,750000.0000000000,933.0000000000,0.0000000000,-125u,27.0000000000,22.0000000000,81.0377487564,1.0000000000,64.0000000000,-64.0000000000,74.0000000000,0.0000000000,1.0000000000
2024-10-22 22:58:41.977789,29.9900000000,12.5870000000,6.0000000000,35.7282387747,-78.6987519770,10.0000000000,-0.2084097621,0.0225368125,1.7603637592,-4.6503637592,0.0000000000,-1.3382793649,0.0000000000,0.0000000000,33000000.0000000000,800000.0000000000,0.0000000000,0.0000000000,-301u,26.0000000000,22.0000000000,82.0363759157,1.0000000000,64.0000000000,-64.0000000000,74.0000000000,0.0000000000,1.0000000000
2024-10-22 22:58:42.977718,29.9900690009,12.5870000000,6.0000000000,35.7282545486,-78.6988034975,10.0000000000,-0.2061200982,0.0222855058,1.7696549953,-4.6596549953,0.0000000000,-1.3384770067,0.0000000000,0.0000000000,33000000.0000000000,809000.0000000000,0.0000000000,0.0000000000,-282u,27.0000000000,22.0000000000,83.0345004687,1.0000000000,64.0000000000,-64.0000000000,74.0000000000,0.0000000000,1.0000000000
2024-10-22 22:58:43.977762,29.9920336218,12.5870000000,6.0000000000,35.7282704312,-78.6988555382,10.0000000000,-0.2063253639,0.0219781062,1.7600000000,-4.6500000000,0.0000000000,-1.3380308399,0.0000000000,0.0000000000,33000000.0000000000,827000.0000000000,0.0000000000,0.0000000000,55u,27.0000000000,22.0000000000,84.0336218317,1.0000000000,64.0000000000,-64.0000000000,74.0000000000,0.0000000000,1.0000000000
2024-10-22 22:58:44.977707,29.9930316222,12.5870000000,6.0000000000,35.7282861996,-78.6989071349,10.0000000000,-0.2047019589,0.0217096691,1.7600000000,-4.6496837779,0.0000000000,-1.3389574584,0.0000000000,0.0000000000,33000000.0000000000,789000.0000000000,0.0000000000,0.0000000000,104u,27.0000000000,22.0000000000,85.0316222147,1.0000000000,64.0000000000,-64.0000000000,73.0000000000,0.0000000000,1.0000000000
2024-10-22 22:58:45.977736,29.9939393128,12.5870000000,6.0000000000,35.7283019794,-78.6989587627,10.0000000000,-0.2097718743,0.0225132340,1.7603034360,-4.6409103079,0.0000000000,-1.3398679083,0.0000000000,0.0000000000,31000000.0000000000,749000.0000000000,0.0000000000,0.0000000000,-330u,27.0000000000,21.0000000000,86.0303435982,1.0000000000,65.0000000000,-65.0000000000,73.0000000000,0.0000000000,1.0000000000
2024-10-22 22:58:46.977812,29.9920000000,12.5870000000,6.0000000000,35.7283177545,-78.6990101892,10.0000000000,-0.2079490783,0.0220361309,1.7700000000,-4.6694283351,0.0000000000,-1.3380644134,0.0000000000,0.0000000000,34000000.0000000000,784000.0000000000,0.0000000000,0.0000000000,-264u,27.0000000000,22.0000000000,87.0285832428,1.0000000000,65.0000000000,-65.0000000000,73.0000000000,0.0000000000,1.0000000000
2024-10-22 22:58:47.977679,29.9920522728,12.5870000000,6.0000000000,35.7283336130,-78.6990621513,10.0000000000,-0.2072142190,0.0216903632,1.7700000000,-4.6500000000,0.0000000000,-1.3395742474,0.0000000000,0.0000000000,33000000.0000000000,766000.0000000000,1100.0000000000,0.0000000000,-951u,27.0000000000,22.0000000000,88.0261364049,1.0000000000,65.0000000000,-65.0000000000,73.0000000000,0.0000000000,1.0000000000
2024-10-22 22:58:48.977796,29.9940245005,12.5870000000,6.0000000000,35.7283493871,-78.6991137716,10.0000000000,-0.2064385160,0.0215235936,1.7697549949,-4.6497549949,0.0000000000,-1.3383488536,0.0000000000,0.0000000000,33000000.0000000000,796000.0000000000,0.0000000000,0.0000000000,-524u,26.0000000000,22.0000000000,89.0245005110,1.0000000000,65.0000000000,-65.0000000000,73.0000000000,0.0000000000,1.0000000000
2024-10-22 22:58:49.977712,29.9950000000,12.5870000000,6.0000000000,35.7283651546,-78.6991655603,10.0000000000,-0.2060066725,0.0207147825,1.7600000000,-4.6402244203,0.0000000000,-1.3386686129,0.0000000000,0.0000000000,33000000.0000000000,765000.0000000000,0.0000000000,0.0000000000,-601u,26.0000000000,22.0000000000,90.0224420332,1.0000000000,65.0000000000,-65.0000000000,73.0000000000,0.0000000000,1.0000000000
2024-10-22 22:58:50.977837,29.9950208335,12.5870000000,6.0000000000,35.7283809292,-78.6992171792,10.0000000000,-0.2073571543,0.0218137018,1.7600000000,-4.6497916648,0.0000000000,-1.3381541794,0.0000000000,0.0000000000,33000000.0000000000,797000.0000000000,1100.0000000000,0.0000000000,-0.001,27.0000000000,22.0000000000,91.0208335197,1.0000000000,65.0000000000,-65.0000000000,73.0000000000,0.0000000000,1.0000000000
2024-10-22 22:58:51.977669,29.9960000000,12.5870000000,6.0000000000,35.7283967041,-78.6992688933,10.0000000000,-0.2079055623,0.0211449661,1.7601924976,-4.6403849951,0.0000000000,-1.3385692297,0.0000000000,0.0000000000,33000000.0000000000,800000.0000000000,0.0000000000,0.0000000000,-757u,27.0000000000,22.0000000000,92.0192497561,1.0000000000,65.0000000000,-65.0000000000,73.0000000000,0.0000000000,1.0000000000
2024-10-22 22:58:52.977771,29.9960000000,12.5870000000,6.0000000000,35.7284124801,-78.6993204201,10.0000000000,-0.2096260371,0.0220203162,1.7700000000,-4.6600000000,0.0000000000,-1.3386443351,0.0000000000,0.0000000000,33000000.0000000000,783000.0000000000,0.0000000000,0.0000000000,100u,27.0000000000,22.0000000000,93.0177285545,1.0000000000,66.0000000000,-66.0000000000,72.0000000000,0.0000000000,1.0000000000
2024-10-22 22:58:53.977753,29.9960163812,12.5870000000,6.0000000000,35.7284282605,-78.6993722485,10.0000000000,-0.2061599039,0.0217999893,1.7700000000,-4.6600000000,0.0000000000,-1.3392386779,0.0000000000,0.0000000000,33000000.0000000000,793000.0000000000,0.0000000000,0.0000000000,165u,27.0000000000,22.0000000000,94.0163812334,1.0000000000,66.0000000000,-66.0000000000,72.0000000000,0.0000000000,1.0000000000
2024-10-22 22:58:54.977807,29.9970000000,12.5870000000,6.0000000000,35.7284441353,-78.6994239694,10.0000000000,-0.2074407087,0.0212652563,1.7698520315,-4.6597040631,0.0000000000,-1.3382176562,0.0000000000,0.0000000000,32000000.0000000000,791000.0000000000,0.0000000000,0.0000000000,52u,27.0000000000,22.0000000000,95.0147968465,1.0000000000,66.0000000000,-66.0000000000,72.0000000000,0.0000000000,1.0000000000
2024-10-22 22:58:55.977720,29.9969871367,12.5870000000,6.0000000000,35.7284600020,-78.6994758625,10.0000000000,-0.2051521241,0.0204048407,1.7600000000,-4.6401286334,0.0000000000,-1.3387246837,0.0000000000,0.0000000000,33000000.0000000000,776000.0000000000,0.0000000000,0.0000000000,-833u,27.0000000000,22.0000000000,96.0128633366,1.0000000000,66.0000000000,-66.0000000000,72.0000000000,0.0000000000,1.0000000000
2024-10-22 22:58:56.977790,29.9960109393,12.5870000000,6.0000000000,35.7284756728,-78.6995272667,10.0000000000,-0.2099820088,0.0219368637,1.7601093927,-4.6501093927,0.0000000000,-1.3384561584,0.0000000000,0.0000000000,33000000.0000000000,783000.0000000000,1000.0000000000,0.0000000000,64u,27.0000000000,22.0000000000,97.0109392675,1.0000000000,66.0000000000,-66.0000000000,72.0000000000,0.0000000000,1.0000000000
2024-10-22 22:58:57.977747,29.9970092765,12.5870000000,6.0000000000,35.7284914475,-78.6995789815,10.0000000000,-0.2061428892,0.0213340215,1.7700000000,-4.6599072349,0.0000000000,-1.3393246395,0.0300000000,0.0000000000,32000000.0000000000,791000.0000000000,0.0000000000,0.0000000000,0.0029,27.0000000000,22.0000000000,98.0092765085,1.0000000000,66.0000000000,-66.0000000000,70.0000000000,0.0000000000,1.0000000000
2024-10-22 22:58:58.977768,29.9980080686,12.5870000000,6.0000000000,35.7285073275,-78.6996308188,10.0000000000,-0.2078826931,0.0210988034,1.7699193136,-4.6500000000,0.0000000000,-1.3387877761,0.0000000000,0.0000000000,33000000.0000000000,813000.0000000000,0.0000000000,0.0000000000,-147u,27.0000000000,22.0000000000,99.0080686388,1.0000000000,66.0000000000,-66.0000000000,72.0000000000,0.0000000000,1.0000000000
2024-10-22 22:58:59.977630,29.9990000000,12.5870000000,6.0000000000,35.7285231088,-78.6996826553,10.0000000000,-0.2028726254,0.0201313663,1.7600000000,-4.6499311490,0.0000000000,-1.3379259248,0.0000000000,0.0000000000,33000000.0000000000,789000.0000000000,0.0000000000,0.0000000000,-314u,27.0000000000,22.0000000000,100.0068851044,1.0000000000,66.0000000000,-66.0000000000,72.0000000000,0.0000000000,1.0000000000
2024-10-22 22:59:00.977748,29.9990054417,12.5870000000,6.0000000000,35.7285388854,-78.6997341797,10.0000000000,-0.2101671880,0.0216871737,1.7595646656,-4.6389116640,0.0000000000,-1.3386425909,0.0000000000,0.0000000000,32000000.0000000000,794000.0000000000,0.0000000000,0.0000000000,319u,27.0000000000,22.0000000000,101.0054416799,1.0000000000,67.0000000000,-67.0000000000,71.0000000000,0.0000000000,1.0000000000
2024-10-22 22:59:01.977791,29.9999881177,12.5870000000,6.0000000000,35.7285545531,-78.6997854739,10.0000000000,-0.1077433955,0.0083205647,1.6783760911,-4.4356827788,0.0000000000,-1.3372675073,0.0000000000,0.0000000000,32000000.0000000000,762000.0000000000,0.0000000000,0.0000000000,-570u,27.0000000000,21.0000000000,102.0039607534,1.0000000000,67.0000000000,-67.0000000000,71.0000000000,0.0000000000,1.0000000000
2024-10-22 22:59:02.977714,29.9970023164,12.5870000000,6.0000000000,35.7285679213,-78.6998292693,10.0000000000,0.0045221559,-0.0039250249,1.2687028033,-3.3466411872,0.0000000000,-1.3369391766,0.0000000000,0.0000000000,33000000.0000000000,795000.0000000000,715.0000000000,0.0000000000,-914u,27.0000000000,22.0000000000,103.0023164226,1.0000000000,67.0000000000,-67.0000000000,71.0000000000,0.0000000000,1.0000000000
2024-10-22 22:59:03.977766,29.9980039609,12.5870000000,6.0000000000,35.7285771050,-78.6998591162,10.0000000000,0.1229693445,-0.0174110673,0.7092342193,-1.8979799234,0.0000000000,-1.3387177618,0.0000000000,0.0000000000,33000000.0000000000,764000.0000000000,0.0000000000,0.0000000000,-628u,27.0000000000,22.0000000000,104.0013203115,1.0000000000,67.0000000000,-67.0000000000,71.0000000000,0.0000000000,1.0000000000
2024-10-22 22:59:04.977744,30.0009960437,12.5870000000,6.0000000000,35.7285808950,-78.6998713838,10.0000000000,0.1057529705,-0.0140082364,0.1307648921,-0.3720177327,0.0000000000,-1.3375044415,0.0000000000,0.0000000000,32000000.0000000000,773000.0000000000,0.0000000000,0.0000000000,-446u,27.0000000000,22.0000000000,104.9986812205,1.0000000000,67.0000000000,-67.0000000000,71.0000000000,0.0000000000,1.0000000000
2024-10-22 22:59:05.977830,30.0000033529,12.5870000000,6.0000000000,35.7285810993,-78.6998717987,10.0000000000,0.0245358509,-0.0025838359,-0.0693294242,0.1781559164,0.0000000000,-1.3366386162,0.0000000000,0.0000000000,33000000.0000000000,755000.0000000000,933.0000000000,0.0000000000,-0.0011,27.0000000000,22.0000000000,105.9966471208,1.0000000000,67.0000000000,-67.0000000000,71.0000000000,0.0000000000,1.0000000000
2024-10-22 22:59:06.977806,29.9980092027,12.5870000000,6.0000000000,35.7285802041,-78.6998694110,10.0000000000,-0.0038113538,0.0022427959,-0.0700000000,0.1899539865,0.0000000000,-1.3346445812,0.0000000000,0.0000000000,32000000.0000000000,819000.0000000000,1200.0000000000,0.0000000000,-0.0012,27.0000000000,21.0000000000,106.9953986522,1.0000000000,67.0000000000,-67.0000000000,71.0000000000,0.0000000000,1.0000000000
2024-10-22 22:59:07.977821,29.9989932407,12.5870000000,6.0000000000,35.7285795047,-78.6998676122,10.0000000000,-0.0069883662,-0.0013365907,-0.0203379634,0.1006083341,0.0000000000,-0.5072073516,0.0000000000,0.0000000000,33000000.0000000000,766000.0000000000,0.0000000000,0.0000000000,-0.0018000000000000002,27.0000000000,22.0000000000,107.9932407320,1.0000000000,67.0000000000,-67.0000000000,71.0000000000,0.0000000000,1.0000000000
2024-10-22 22:59:08.977856,29.9990000000,12.5870000000,6.0000000000,35.7285792027,-78.6998668071,10.0000000000,-0.0364973680,-0.0161642380,0.0196452804,0.0702660397,0.0000000000,0.9431849636,0.0000000000,0.0000000000,32000000.0000000000,753000.0000000000,1200.0000000000,0.0000000000,-0.0018000000000000002,27.0000000000,21.0000000000,108.9911320093,1.0000000000,67.0000000000,-67.0000000000,71.0000000000,0.0000000000,1.0000000000
2024-10-22 22:59:09.977823,29.9990000000,12.5870000000,6.0000000000,35.7285855301,-78.6998607666,10.0000000000,-0.3023871728,-0.0973259253,1.7805662240,1.2766802209,0.0000000000,0.9407601951,0.0000000000,0.0000000000,33000000.0000000000,778000.0000000000,1000.0000000000,0.0000000000,-0.0017,27.0000000000,22.0000000000,109.9890821483,1.0000000000,67.0000000000,-67.0000000000,71.0000000000,0.0000000000,1.0000000000
2024-10-22 22:59:10.977813,30.0059100622,12.5870000000,6.0000000000,35.7286097852,-78.6998396737,10.0000000000,-0.2885271479,0.0387075952,3.5275155592,2.5535542376,0.0000000000,0.4876236894,0.0000000000,0.0000000000,33000000.0000000000,772000.0000000000,0.0000000000,0.0000000000,-0.0013000000000000002,27.0000000000,22.0000000000,110.9871517481,1.0000000000,67.0000000000,-67.0000000000,71.0000000000,0.0000000000,1.0000000000
2024-10-22 22:59:11.977829,30.0040287158,12.5870000000,6.0000000000,35.7286438090,-78.6998097322,10.0000000000,-0.2250547355,-0.0307697348,3.9639696779,2.8262669435,0.0000000000,0.7958196800,0.0000000000,0.0000000000,32000000.0000000000,774000.0000000000,0.0000000000,0.0000000000,-742u,27.0000000000,22.0000000000,111.9856420903,1.0000000000,67.0000000000,-67.0000000000,71.0000000000,0.0000000000,1.0000000000
2024-10-22 22:59:12.977837,29.9971118514,12.5870000000,6.0000000000,35.7286805120,-78.6997777129,10.0000000000,-0.2256255282,-0.0012029128,4.0880825476,2.9284021230,0.0000000000,0.6830597487,0.0000000000,0.0000000000,33000000.0000000000,753000.0000000000,551.0000000000,0.0000000000,-0.0013000000000000002,27.0000000000,22.0000000000,112.9840212297,1.0000000000,67.0000000000,-67.0000000000,71.0000000000,0.0000000000,1.0000000000
2024-10-22 22:59:13.977713,29.9979819552,12.5870000000,6.0000000000,35.7287176287,-78.6997448937,10.0000000000,-0.2199488062,-0.0072168833,4.1292782082,2.9889173123,0.0000000000,0.6716164707,0.0000000000,0.0000000000,33000000.0000000000,791000.0000000000,0.0000000000,0.0000000000,-582u,27.0000000000,22.0000000000,113.9819552050,1.0000000000,67.0000000000,-67.0000000000,71.0000000000,0.0000000000,1.0000000000
2024-10-22 22:59:14.977804,29.9980000000,12.5870000000,6.0000000000,35.7287551466,-78.6997117652,10.0000000000,-0.2107087524,-0.0148446718,4.1300000000,2.9410018486,0.0000000000,0.7311313164,0.0000000000,0.0000000000,32000000.0000000000,801000.0000000000,0.0000000000,0.0000000000,-511u,27.0000000000,22.0000000000,114.9799630289,1.0000000000,67.0000000000,-67.0000000000,71.0000000000,0.0000000000,1.0000000000
2024-10-22 22:59:15.977828,29.9989780516,12.5870000000,6.0000000000,35.7287923813,-78.6996791177,10.0000000000,-0.2085822258,-0.0045137479,4.0908779367,2.9204389683,0.0000000000,0.6756069802,0.0000000000,0.0000000000,33000000.0000000000,792000.0000000000,0.0000000000,0.0000000000,-322u,27.0000000000,22.0000000000,115.9780515829,1.0000000000,67.0000000000,-67.0000000000,71.0000000000,0.0000000000,1.0000000000
2024-10-22 22:59:16.977787,29.9990000000,12.5870000000,6.0000000000,35.7288292347,-78.6996467598,10.0000000000,-0.2091065046,-0.0110208125,4.0607035033,2.8907035033,0.0000000000,0.7069024336,0.0000000000,0.0000000000,33000000.0000000000,778000.0000000000,0.0000000000,0.0000000000,-462u,27.0000000000,22.0000000000,116.9765498903,1.0000000000,67.0000000000,-67.0000000000,71.0000000000,0.0000000000,1.0000000000
2024-10-22 22:59:17.977827,30.0009497743,12.5870000000,6.0000000000,35.7288657809,-78.6996147061,10.0000000000,-0.2117319690,-0.0082319348,4.0600000000,2.8900000000,0.0000000000,0.6988684011,0.0000000000,0.0000000000,33000000.0000000000,766000.0000000000,0.0000000000,0.0000000000,-349u,27.0000000000,23.0000000000,117.9748871500,1.0000000000,67.0000000000,-67.0000000000,71.0000000000,0.0000000000,1.0000000000
2024-10-22 22:59:18.977764,30.0029454670,12.5870000000,6.0000000000,35.7289023993,-78.6995826753,10.0000000000,-0.2097348913,-0.0078612429,4.0600000000,2.8900000000,0.0000000000,0.6936823772,0.0000000000,0.0000000000,33000000.0000000000,761000.0000000000,0.0000000000,0.0000000000,-843u,27.0000000000,22.0000000000,118.9727334944,1.0000000000,67.0000000000,-67.0000000000,71.0000000000,0.0000000000,1.0000000000
2024-10-22 22:59:19.977756,30.0010569821,12.5870000000,6.0000000000,35.7289390544,-78.6995506146,10.0000000000,-0.2111081256,-0.0086302682,4.0600000000,2.8900000000,0.0000000000,0.7023749181,0.0000000000,0.0000000000,32000000.0000000000,803000.0000000000,0.0000000000,0.0000000000,-0.0014,27.0000000000,22.0000000000,119.9715089327,1.0000000000,67.0000000000,-67.0000000000,71.0000000000,0.0000000000,1.0000000000
2024-10-22 22:59:20.977733,30.0000304134,12.5870000000,6.0000000000,35.7289757808,-78.6995184793,10.0000000000,-0.2067695438,-0.0065393769,4.0503041342,2.8803041342,0.0000000000,0.6957810159,0.0000000000,0.0000000000,33000000.0000000000,782000.0000000000,0.0000000000,0.0000000000,-669u,27.0000000000,22.0000000000,120.9695865823,1.0000000000,67.0000000000,-67.0000000000,71.0000000000,0.0000000000,1.0000000000
2024-10-22 22:59:21.977771,29.9990322967,12.5870000000,6.0000000000,35.7290121244,-78.6994866303,10.0000000000,-0.2129050976,-0.0082833682,4.0500000000,2.8896770325,0.0000000000,0.6986886015,0.0000000000,0.0000000000,33000000.0000000000,802000.0000000000,1400.0000000000,0.0000000000,-248u,27.0000000000,22.0000000000,121.9677032548,1.0000000000,67.0000000000,-67.0000000000,71.0000000000,0.0000000000,1.0000000000
2024-10-22 22:59:22.977805,29.9990000000,12.5870000000,6.0000000000,35.7290487539,-78.6994545899,10.0000000000,-0.2093178227,-0.0082321836,4.0500000000,2.8900000000,0.0000000000,0.6985726838,0.0000000000,0.0000000000,33000000.0000000000,802000.0000000000,1400.0000000000,0.0000000000,-368u,27.0000000000,22.0000000000,122.9660453788,1.0000000000,66.0000000000,-66.0000000000,71.0000000000,0.0000000000,1.0000000000
2024-10-22 22:59:23.978215,29.9990000000,12.5870000000,6.0000000000,35.7290853113,-78.6994226267,10.0000000000,-0.2110699407,-0.0081455477,4.0596478958,2.8900000000,0.0000000000,0.6986096288,0.0000000000,0.0000000000,33000000.0000000000,752000.0000000000,0.0000000000,0.0000000000,-406u,27.0000000000,22.0000000000,123.9647895783,1.0000000000,66.0000000000,-66.0000000000,72.0000000000,0.0000000000,1.0000000000
2024-10-22 22:59:24.977788,30.0018872816,12.5870000000,6.0000000000,35.7291219211,-78.6993906061,10.0000000000,-0.2083458907,-0.0072073986,4.0503757281,2.8900000000,0.0000000000,0.6976440260,0.0000000000,0.0000000000,33000000.0000000000,805000.0000000000,0.0000000000,0.0000000000,-111u,27.0000000000,22.0000000000,124.9624271852,1.0000000000,66.0000000000,-66.0000000000,72.0000000000,0.0000000000,1.0000000000
2024-10-22 22:59:25.977771,30.0020000000,12.5870000000,6.0000000000,35.7291585594,-78.6993585601,10.0000000000,-0.2093245911,-0.0073450416,4.0403925403,2.8803925403,0.0000000000,0.6978689970,0.0000000000,0.0000000000,33000000.0000000000,784000.0000000000,0.0000000000,0.0000000000,-471u,27.0000000000,22.0000000000,125.9607459672,1.0000000000,66.0000000000,-66.0000000000,72.0000000000,0.0000000000,1.0000000000
2024-10-22 22:59:26.977836,30.0000809776,12.5870000000,6.0000000000,35.7291951181,-78.6993264997,10.0000000000,-0.2068168851,-0.0075097567,4.0400000000,2.8800000000,0.0000000000,0.6984183595,0.0000000000,0.0000000000,32000000.0000000000,768000.0000000000,0.0000000000,0.0000000000,-318u,27.0000000000,22.0000000000,126.9595111776,1.0000000000,66.0000000000,-66.0000000000,72.0000000000,0.0000000000,1.0000000000
2024-10-22 22:59:27.977844,29.9990426307,12.5870000000,6.0000000000,35.7292314482,-78.6992946599,10.0000000000,-0.2136878911,-0.0081729729,4.0495736931,2.8895736931,0.0000000000,0.6988503488,0.0300000000,0.0000000000,30000000.0000000000,764000.0000000000,1000.0000000000,0.0000000000,-0.0011,27.0000000000,21.0000000000,127.9573693123,1.0000000000,66.0000000000,-66.0000000000,70.0000000000,0.0000000000,1.0000000000
2024-10-22 22:59:28.977807,29.9990000000,12.5870000000,6.0000000000,35.7292679959,-78.6992627025,10.0000000000,-0.2099257381,-0.0076032893,4.0595617107,2.8995617107,0.0000000000,0.6986411737,0.0400000000,0.0000000000,33000000.0000000000,790000.0000000000,1100.0000000000,0.0000000000,163u,27.0000000000,22.0000000000,128.9561710658,1.0000000000,66.0000000000,-66.0000000000,70.0000000000,0.0000000000,1.0000000000
2024-10-22 22:59:29.977806,29.9990000000,12.5870000000,6.0000000000,35.7293047382,-78.6992305541,10.0000000000,-0.2086583225,-0.0075747151,4.0504515758,2.8904515758,0.0000000000,0.6985193144,0.0000000000,0.0000000000,33000000.0000000000,813000.0000000000,1600.0000000000,0.0000000000,49u,27.0000000000,22.0000000000,129.9548424241,1.0000000000,66.0000000000,-66.0000000000,72.0000000000,0.0000000000,1.0000000000
2024-10-22 22:59:30.977807,29.9999523384,12.5870000000,6.0000000000,35.7293413508,-78.6991985299,10.0000000000,-0.2058699623,-0.0070902754,4.0404766159,2.8900000000,0.0000000000,0.6984074986,0.0000000000,0.0000000000,33000000.0000000000,784000.0000000000,1000.0000000000,0.0000000000,-516u,27.0000000000,22.0000000000,130.9523384071,1.0000000000,66.0000000000,-66.0000000000,72.0000000000,0.0000000000,1.0000000000
2024-10-22 22:59:31.977839,30.0009503465,12.5870000000,6.0000000000,35.7293778827,-78.6991664939,10.0000000000,-0.2101450132,-0.0079853558,4.0400000000,2.8804965348,0.0000000000,0.6984402319,0.0000000000,0.0000000000,33000000.0000000000,813000.0000000000,1400.0000000000,0.0000000000,198u,27.0000000000,22.0000000000,131.9503465195,1.0000000000,66.0000000000,-66.0000000000,72.0000000000,0.0000000000,1.0000000000
2024-10-22 22:59:32.977799,30.0010000000,12.5870000000,6.0000000000,35.7294142409,-78.6991347242,10.0000000000,-0.2103590876,-0.0072069933,4.0494892482,2.8894892482,0.0000000000,0.6986734959,0.0000000000,0.0000000000,33000000.0000000000,787000.0000000000,1200.0000000000,0.0000000000,-140u,27.0000000000,22.0000000000,132.9489248191,1.0000000000,66.0000000000,-66.0000000000,72.0000000000,0.0000000000,1.0000000000
2024-10-22 22:59:33.977876,30.0000519469,12.5870000000,6.0000000000,35.7294507987,-78.6991026675,10.0000000000,-0.2118382837,-0.0076634956,4.0500000000,2.8900000000,0.0000000000,0.6986228242,0.1200000000,0.0000000000,31000000.0000000000,728000.0000000000,0.0000000000,0.0000000000,-301u,27.0000000000,21.0000000000,133.9480530708,1.0000000000,66.0000000000,-66.0000000000,66.0000000000,0.0000000000,1.0000000000
2024-10-22 22:59:34.977922,29.9990531835,12.5870000000,6.0000000000,35.7294873535,-78.6990707019,10.0000000000,-0.2092279004,-0.0071317029,4.0594681648,2.8994681648,0.0000000000,0.6985160338,0.0000000000,0.0000000000,33000000.0000000000,786000.0000000000,0.0000000000,0.0000000000,-279u,27.0000000000,22.0000000000,134.9468164771,1.0000000000,66.0000000000,-66.0000000000,72.0000000000,0.0000000000,1.0000000000
2024-10-22 22:59:35.977790,29.9990000000,12.5870000000,6.0000000000,35.7295240666,-78.6990385793,10.0000000000,-0.2100133680,-0.0073330164,4.0411051334,2.8905525667,0.0000000000,0.6976493456,0.0000000000,0.0000000000,32000000.0000000000,794000.0000000000,1200.0000000000,0.0000000000,-0.0011,27.0000000000,21.0000000000,135.9447433296,1.0000000000,66.0000000000,-66.0000000000,72.0000000000,0.0000000000,1.0000000000
2024-10-22 22:59:36.977696,29.9990000000,12.5870000000,6.0000000000,35.7295605354,-78.6990066101,10.0000000000,-0.2079875259,-0.0080616490,4.0494343519,2.8900000000,0.0000000000,0.6993726426,0.0000000000,0.0000000000,33000000.0000000000,791000.0000000000,991.0000000000,0.0000000000,217u,27.0000000000,22.0000000000,136.9434351942,1.0000000000,66.0000000000,-66.0000000000,72.0000000000,0.0000000000,1.0000000000
2024-10-22 22:59:37.977790,30.0008831068,12.5870000000,6.0000000000,35.7295971550,-78.6989745761,10.0000000000,-0.2121054677,-0.0079775550,4.0405844659,2.8805844659,0.0000000000,0.6994944171,0.0000000000,0.0000000000,33000000.0000000000,802000.0000000000,1000.0000000000,0.0000000000,-90u,27.0000000000,22.0000000000,137.9415534116,1.0000000000,66.0000000000,-66.0000000000,72.0000000000,0.0000000000,1.0000000000
2024-10-22 22:59:38.977984,30.0019397692,12.5870000000,6.0000000000,35.7296335076,-78.6989428153,10.0000000000,-0.2117206440,-0.0070329584,4.0587953847,2.8987953847,0.0000000000,0.6980572560,0.0000000000,0.0000000000,32000000.0000000000,772000.0000000000,1000.0000000000,0.0000000000,26u,27.0000000000,22.0000000000,138.9397692375,1.0000000000,66.0000000000,-66.0000000000,72.0000000000,0.0000000000,1.0000000000
2024-10-22 22:59:39.977802,30.0001236290,12.5870000000,6.0000000000,35.7296701314,-78.6989106904,10.0000000000,-0.2096427804,-0.0070075542,4.0506181451,2.9000000000,0.0000000000,0.6985336822,0.0000000000,0.0000000000,33000000.0000000000,794000.0000000000,1100.0000000000,0.0000000000,-408u,27.0000000000,22.0000000000,139.9381854949,1.0000000000,66.0000000000,-66.0000000000,72.0000000000,0.0000000000,1.0000000000
2024-10-22 22:59:40.977873,29.9990635802,12.5870000000,6.0000000000,35.7297066730,-78.6988786409,10.0000000000,-0.2094598723,-0.0072336382,4.0500000000,2.8906358023,0.0000000000,0.6984168171,0.0000000000,0.0000000000,33000000.0000000000,809000.0000000000,711.0000000000,0.0000000000,-893u,27.0000000000,22.0000000000,140.9364197652,1.0000000000,66.0000000000,-66.0000000000,72.0000000000,0.0000000000,1.0000000000
2024-10-22 22:59:41.977839,29.9999352308,12.5870000000,6.0000000000,35.7297434165,-78.6988465791,10.0000000000,-0.2083567877,-0.0077911072,4.0406476920,2.8806476920,0.0000000000,0.6981614549,0.0900000000,0.0000000000,32000000.0000000000,804000.0000000000,989.0000000000,0.0000000000,0.0023,27.0000000000,21.0000000000,141.9352308022,1.0000000000,66.0000000000,-66.0000000000,68.0000000000,0.0000000000,1.0000000000
2024-10-22 22:59:42.977796,29.9990660335,12.5870000000,6.0000000000,35.7297797964,-78.6988147065,10.0000000000,-0.2130317828,-0.0075222245,4.0493396646,2.8893396646,0.0000000000,0.6989259176,0.0700000000,0.0000000000,31000000.0000000000,781000.0000000000,1000.0000000000,0.0000000000,-707u,27.0000000000,21.0000000000,142.9339664612,1.0000000000,66.0000000000,-66.0000000000,70.0000000000,0.0000000000,1.0000000000
2024-10-22 22:59:43.977859,29.9990000000,12.5870000000,6.0000000000,35.7298163548,-78.6987826445,10.0000000000,-0.2100945055,-0.0070360422,4.0500000000,2.8993319229,0.0000000000,0.6980600557,0.0000000000,0.0000000000,33000000.0000000000,802000.0000000000,1200.0000000000,0.0000000000,-568u,27.0000000000,22.0000000000,143.9331922892,1.0000000000,66.0000000000,-66.0000000000,72.0000000000,0.0000000000,1.0000000000
2024-10-22 22:59:44.977725,29.9990000000,12.5870000000,6.0000000000,35.7298529640,-78.6987506181,10.0000000000,-0.2106285177,-0.0073223018,4.0593089999,2.9000000000,0.0000000000,0.6988994219,0.0000000000,0.0000000000,33000000.0000000000,780000.0000000000,0.0000000000,0.0000000000,-635u,27.0000000000,22.0000000000,144.9308999895,1.0000000000,66.0000000000,-66.0000000000,72.0000000000,0.0000000000,1.0000000000
