time,Altitude,BatteryVolts,GPSFix,Latitude,Longitude,NumberOfSatellites,Pitch,Roll,VelocityX,VelocityY,VelocityZ,Yaw,blerDl,blerUl,brateDl,brateUl,buff,cc,cfo,mcsDl,mcsUl,num,pci,pl,rsrp,snr,ta_us,turbo
2024-10-22 23:39:45.815472,-0.0170000000,12.5870000000,6.0000000000,35.7274823000,-78.6962747000,10.0000000000,0.0010326466,0.0012490104,-0.0100000000,0.0100000000,0.0000000000,0.0227213829,0.0000000000,0.0000000000,3800.0000000000,27000.0000000000,0.0000000000,0.0000000000,-3.1,3.0000000000,22.0000000000,2.7040335666,1.0000000000,60.0000000000,-60.0000000000,74.0000000000,0.0000000000,1.0000000000
2024-10-22 23:39:46.815320,-0.0170000000,12.5870000000,6.0000000000,35.7274823000,-78.6962747000,10.0000000000,0.0010338730,0.0012555190,-0.0100000000,0.0100000000,0.0000000000,0.0227246763,0.3000000000,0.0000000000,2100000.0000000000,92000.0000000000,140.0000000000,0.0000000000,0.0037,26.0000000000,15.0000000000,3.7016935647,1.0000000000,68.0000000000,-68.0000000000,57.0000000000,0.0000000000,1.1000000000
2024-10-22 23:39:47.815397,-0.0170000000,12.5870000000,6.0000000000,35.7274823000,-78.6962747000,10.0000000000,0.0010294285,0.0012488753,-0.0100000000,0.0100000000,0.0000000000,0.0227113632,0.0000000000,0.0000000000,14000000.0000000000,418000.0000000000,1200.0000000000,0.0000000000,-105u,27.0000000000,16.0000000000,4.6993604125,1.0000000000,68.0000000000,-68.0000000000,70.0000000000,0.0000000000,1.0000000000
2024-10-22 23:39:48.815389,-0.0170000000,12.5870000000,6.0000000000,35.7274823000,-78.6962747000,10.0000000000,0.0010221423,0.0012402398,-0.0100000000,0.0100000000,0.0000000000,0.0226844127,0.0000000000,0.0000000000,22000000.0000000000,536000.0000000000,286.0000000000,0.0000000000,109u,27.0000000000,17.0000000000,5.6970798212,1.0000000000,68.0000000000,-68.0000000000,70.0000000000,0.0000000000,1.0000000000
2024-10-22 23:39:49.815320,-0.0170000000,12.5870000000,6.0000000000,35.7274823000,-78.6962747000,10.0000000000,0.0010238194,0.0012380909,-0.0100000000,0.0100000000,0.0000000000,0.0226632771,0.0000000000,0.0000000000,28000000.0000000000,594000.0000000000,446.0000000000,0.0000000000,384u,27.0000000000,18.0000000000,6.6948651674,1.0000000000,68.0000000000,-68.0000000000,70.0000000000,0.0000000000,1.0000000000
2024-10-22 23:39:50.815406,-0.0038391231,12.5870000000,6.0000000000,35.7274823000,-78.6962747000,10.0000000000,0.0010386861,0.0012455152,-0.0100000000,0.0100000000,0.0000000000,0.0226550061,0.0000000000,0.0000000000,30000000.0000000000,681000.0000000000,156.0000000000,0.0000000000,272u,27.0000000000,18.0000000000,7.6926777291,1.0000000000,68.0000000000,-68.0000000000,70.0000000000,0.0000000000,1.0000000000
2024-10-22 23:39:51.815350,0.0020000000,12.5870000000,6.0000000000,35.7274823000,-78.6962747000,10.0000000000,0.0011695510,0.0013868473,-0.0030928432,0.0030928432,0.0000000000,0.0226568486,0.0000000000,0.0000000000,34000000.0000000000,829000.0000000000,834.0000000000,0.0000000000,438u,27.0000000000,21.0000000000,8.6907156820,1.0000000000,68.0000000000,-68.0000000000,70.0000000000,0.0000000000,1.0000000000
2024-10-22 23:39:52.815383,0.0020000000,12.5870000000,6.0000000000,35.7274823000,-78.6962747000,10.0000000000,0.0014296966,0.0016472125,0.0000000000,0.0000000000,0.0000000000,0.0226606477,0.0000000000,0.0000000000,34000000.0000000000,812000.0000000000,779.0000000000,0.0000000000,394u,27.0000000000,22.0000000000,9.6886677873,1.0000000000,68.0000000000,-68.0000000000,70.0000000000,0.0000000000,1.0000000000
2024-10-22 23:39:53.815411,0.0020000000,12.5870000000,6.0000000000,35.7274823000,-78.6962747000,10.0000000000,0.0017328845,0.0019489059,0.0000000000,0.0000000000,0.0000000000,0.0226896936,0.0000000000,0.0000000000,34000000.0000000000,820000.0000000000,890.0000000000,0.0000000000,709u,27.0000000000,22.0000000000,10.6871318863,1.0000000000,68.0000000000,-68.0000000000,70.0000000000,0.0000000000,1.0000000000
2024-10-22 23:39:54.815293,0.0020000000,12.5870000000,6.0000000000,35.7274823000,-78.6962747000,10.0000000000,0.0020539290,0.0022649354,0.0000000000,0.0000000000,0.0000000000,0.0227439549,0.0000000000,0.0000000000,34000000.0000000000,799000.0000000000,834.0000000000,0.0000000000,457u,27.0000000000,22.0000000000,11.6852135761,1.0000000000,68.0000000000,-68.0000000000,70.0000000000,0.0000000000,1.0000000000
2024-10-22 23:39:55.815305,0.0772068940,12.5870000000,6.0000000000,35.7274823000,-78.6962747000,10.0000000000,0.0023728916,0.0025819071,0.0000000000,0.0000000000,-0.2392946628,0.0228135505,0.0000000000,0.0000000000,34000000.0000000000,823000.0000000000,890.0000000000,0.0000000000,494u,27.0000000000,22.0000000000,12.6836990365,1.0000000000,68.0000000000,-68.0000000000,70.0000000000,0.0000000000,1.0000000000
2024-10-22 23:39:56.815404,0.9125592883,12.5870000000,6.0000000000,35.7274823682,-78.6962747682,10.0000000000,0.0020907376,0.0024673856,0.0000000000,0.0000000000,-1.1553367094,0.0225304704,0.0000000000,0.0000000000,34000000.0000000000,814000.0000000000,890.0000000000,0.0000000000,421u,27.0000000000,22.0000000000,13.6824887368,1.0000000000,68.0000000000,-68.0000000000,70.0000000000,0.0000000000,1.0000000000
2024-10-22 23:39:57.815313,2.7085416044,12.5870000000,6.0000000000,35.7274824681,-78.6962748681,10.0000000000,0.0029788756,0.0033943669,0.0000000000,0.0000000000,-2.1631390206,0.0102111083,0.0000000000,0.0000000000,34000000.0000000000,812000.0000000000,834.0000000000,0.0000000000,481u,27.0000000000,22.0000000000,14.6807946458,1.0000000000,68.0000000000,-68.0000000000,70.0000000000,0.0000000000,1.0000000000
2024-10-22 23:39:58.815275,5.1109924248,12.5870000000,6.0000000000,35.7274825000,-78.6962749679,10.0000000000,0.0033828331,0.0045218899,-0.0067932358,0.0067932358,-2.4532067642,0.0046784773,0.0000000000,0.0000000000,34000000.0000000000,825000.0000000000,834.0000000000,0.0000000000,582u,27.0000000000,22.0000000000,15.6793235806,1.0000000000,68.0000000000,-68.0000000000,70.0000000000,0.0000000000,1.0000000000
2024-10-22 23:39:59.815320,7.6205673776,12.5870000000,6.0000000000,35.7274825000,-78.6962750000,10.0000000000,0.0035141895,0.0042591988,-0.0100000000,0.0167785380,-2.4296643860,0.0045257751,0.0000000000,0.0000000000,34000000.0000000000,802000.0000000000,668.0000000000,0.0000000000,820u,27.0000000000,22.0000000000,16.6778538002,1.0000000000,68.0000000000,-68.0000000000,70.0000000000,0.0000000000,1.0000000000
2024-10-22 23:40:00.815287,10.1085838219,12.5870000000,6.0000000000,35.7274825000,-78.6962750000,10.0000000000,0.0033505181,0.0038158590,-0.0100000000,0.0200000000,-2.4267599672,0.0044860964,0.0000000000,0.0000000000,34000000.0000000000,810000.0000000000,834.0000000000,0.0000000000,644u,27.0000000000,22.0000000000,17.6759967183,1.0000000000,68.0000000000,-68.0000000000,70.0000000000,0.0000000000,1.0000000000
2024-10-22 23:40:01.815378,12.6031235255,12.5870000000,6.0000000000,35.7274825000,-78.6962749325,10.0000000000,0.0031518140,0.0031622768,-0.0100000000,0.0132542042,-2.4300000000,0.0046650132,0.0000000000,0.0000000000,34000000.0000000000,821000.0000000000,834.0000000000,0.0000000000,676u,27.0000000000,22.0000000000,18.6745795784,1.0000000000,68.0000000000,-68.0000000000,70.0000000000,0.0000000000,1.0000000000
2024-10-22 23:40:02.815314,15.0953570589,12.5870000000,6.0000000000,35.7274825000,-78.6962749000,10.0000000000,0.0031624917,0.0027600988,-0.0100000000,0.0100000000,-2.4300000000,0.0045524175,0.0000000000,0.0000000000,34000000.0000000000,788000.0000000000,834.0000000000,0.0000000000,753u,27.0000000000,22.0000000000,19.6724186935,1.0000000000,68.0000000000,-68.0000000000,70.0000000000,0.0000000000,1.0000000000
2024-10-22 23:40:03.815330,17.5820928967,12.5870000000,6.0000000000,35.7274825000,-78.6962749000,10.0000000000,0.0033602233,0.0025958077,-0.0100000000,0.0033021954,-2.4366978046,0.0046513900,0.0000000000,0.0000000000,34000000.0000000000,809000.0000000000,779.0000000000,0.0000000000,596u,27.0000000000,22.0000000000,20.6697804561,1.0000000000,68.0000000000,-68.0000000000,70.0000000000,0.0000000000,1.0000000000
2024-10-22 23:40:04.815252,20.0631815210,12.5870000000,6.0000000000,35.7274825000,-78.6962749000,10.0000000000,0.0034246502,0.0033316475,-0.0100000000,0.0000000000,-2.4466727627,0.0046195809,0.0000000000,0.0000000000,33000000.0000000000,840000.0000000000,779.0000000000,0.0000000000,751u,27.0000000000,22.0000000000,21.6672762660,1.0000000000,68.0000000000,-68.0000000000,70.0000000000,0.0000000000,1.0000000000
2024-10-22 23:40:05.815272,22.5476205929,12.5870000000,6.0000000000,35.7274825000,-78.6962749000,10.0000000000,0.0034648549,0.0042336131,-0.0100000000,0.0066464338,-2.4566464338,0.0044320095,0.0000000000,0.0000000000,34000000.0000000000,821000.0000000000,834.0000000000,0.0000000000,842u,27.0000000000,22.0000000000,22.6646433813,1.0000000000,68.0000000000,-68.0000000000,70.0000000000,0.0000000000,1.0000000000
2024-10-22 23:40:06.815302,24.9939256590,12.5870000000,6.0000000000,35.7274825000,-78.6962749662,10.0000000000,0.0036187328,0.0045259154,-0.0100000000,0.0166170393,-2.3011910571,0.0047407027,0.0000000000,0.0000000000,34000000.0000000000,820000.0000000000,890.0000000000,0.0000000000,700u,27.0000000000,22.0000000000,23.6617039289,1.0000000000,68.0000000000,-68.0000000000,70.0000000000,0.0000000000,1.0000000000
2024-10-22 23:40:07.815437,27.0770647121,12.5870000000,6.0000000000,35.7274825000,-78.6962750000,10.0000000000,0.0037821474,0.0046603547,-0.0100000000,0.0200000000,-1.7786809424,0.0044863537,0.0000000000,0.0000000000,34000000.0000000000,818000.0000000000,890.0000000000,0.0000000000,662u,27.0000000000,22.0000000000,24.6586851605,1.0000000000,68.0000000000,-68.0000000000,70.0000000000,0.0000000000,1.0000000000
2024-10-22 23:40:08.815243,28.7480093907,12.5870000000,6.0000000000,35.7274825000,-78.6962750000,10.0000000000,0.0041497614,0.0042645969,-0.0165593389,0.0200000000,-1.1367616520,0.0045268457,0.0000000000,0.0000000000,34000000.0000000000,806000.0000000000,834.0000000000,0.0000000000,585u,27.0000000000,22.0000000000,25.6559338858,1.0000000000,68.0000000000,-68.0000000000,70.0000000000,0.0000000000,1.0000000000
2024-10-22 23:40:09.815277,29.7014288869,12.5870000000,6.0000000000,35.7274825653,-78.6962750000,10.0000000000,0.0041650380,0.0038466734,-0.0200000000,0.0200000000,-0.5541430270,0.0046784982,0.0000000000,0.0000000000,34000000.0000000000,802000.0000000000,890.0000000000,0.0000000000,693u,27.0000000000,22.0000000000,26.6533160231,1.0000000000,68.0000000000,-68.0000000000,70.0000000000,0.0000000000,1.0000000000
2024-10-22 23:40:10.815388,29.9636998987,12.5870000000,6.0000000000,35.7274826000,-78.6962750000,10.0000000000,0.0036544501,0.0034736190,-0.0200000000,0.0200000000,-0.0996727951,0.0045874591,0.0000000000,0.0000000000,34000000.0000000000,794000.0000000000,890.0000000000,0.0000000000,635u,27.0000000000,22.0000000000,27.6508180122,1.0000000000,68.0000000000,-68.0000000000,70.0000000000,0.0000000000,1.0000000000
2024-10-22 23:40:11.815419,29.9635993532,12.5870000000,6.0000000000,35.7274826000,-78.6962750000,10.0000000000,0.0034870852,0.0034733499,-0.0200000000,0.0200000000,-0.0053953114,0.0047040847,0.0000000000,0.0000000000,34000000.0000000000,790000.0000000000,834.0000000000,0.0000000000,679u,27.0000000000,22.0000000000,28.6485044490,1.0000000000,68.0000000000,-68.0000000000,70.0000000000,0.0000000000,1.0000000000
2024-10-22 23:40:12.815411,29.9513555389,12.5870000000,6.0000000000,35.7274826000,-78.6962750000,10.0000000000,0.0032801396,0.0034777510,-0.0200000000,0.0200000000,-0.0364446106,0.0045676623,0.0000000000,0.0000000000,34000000.0000000000,802000.0000000000,890.0000000000,0.0000000000,732u,27.0000000000,22.0000000000,29.6444610580,1.0000000000,68.0000000000,-68.0000000000,70.0000000000,0.0000000000,1.0000000000
2024-10-22 23:40:13.815335,29.9548445926,12.5870000000,6.0000000000,35.7274825359,-78.6962750000,10.0000000000,0.0027636427,0.0032420051,-0.0200000000,0.0200000000,-0.0400000000,-0.0451784616,0.0000000000,0.0000000000,34000000.0000000000,818000.0000000000,1000.0000000000,0.0000000000,576u,27.0000000000,22.0000000000,30.6407654375,1.0000000000,68.0000000000,-68.0000000000,70.0000000000,0.0000000000,1.0000000000
2024-10-22 23:40:14.815327,29.9614711702,12.5870000000,6.0000000000,35.7274825000,-78.6962750000,10.0000000000,0.0031867746,0.0012925306,-0.0200000000,0.0200000000,-0.0336126141,-0.8537712082,0.0000000000,0.0000000000,34000000.0000000000,803000.0000000000,890.0000000000,0.0000000000,456u,27.0000000000,22.0000000000,31.6387385937,1.0000000000,68.0000000000,-68.0000000000,70.0000000000,0.0000000000,1.0000000000
2024-10-22 23:40:15.815254,29.9582690402,12.5870000000,6.0000000000,35.7274832641,-78.6962774197,10.0000000000,-0.1669535942,0.0938220546,0.2856511887,-0.7950698365,-0.0172645338,-1.5691544214,0.0000000000,0.0000000000,34000000.0000000000,805000.0000000000,779.0000000000,0.0000000000,583u,27.0000000000,22.0000000000,32.6367733098,1.0000000000,68.0000000000,-68.0000000000,70.0000000000,0.0000000000,1.0000000000
2024-10-22 23:40:16.815384,29.9530954731,12.5870000000,6.0000000000,35.7274889057,-78.6962957503,10.0000000000,-0.3250825217,0.0356377813,0.9932675294,-2.7137888599,-0.0163484230,-1.3467832884,0.0000000000,0.0000000000,34000000.0000000000,815000.0000000000,723.0000000000,0.0000000000,97u,27.0000000000,22.0000000000,33.6348422969,1.0000000000,68.0000000000,-68.0000000000,70.0000000000,0.0000000000,1.0000000000
2024-10-22 23:40:17.815372,29.9538980475,12.5870000000,6.0000000000,35.7275005678,-78.6963344769,10.0000000000,-0.2751728893,0.0150818137,1.5277656977,-4.1067605944,-0.0136731751,-1.2909246717,0.0000000000,0.0000000000,34000000.0000000000,791000.0000000000,890.0000000000,0.0000000000,-149u,27.0000000000,22.0000000000,34.6326824936,1.0000000000,68.0000000000,-68.0000000000,70.0000000000,0.0000000000,1.0000000000
2024-10-22 23:40:18.815383,29.9518447091,12.5870000000,6.0000000000,35.7275156338,-78.6963836733,10.0000000000,-0.2177766859,0.0298999614,1.7294163999,-4.5625222181,-0.0163105818,-1.3780847491,0.0000000000,0.0000000000,34000000.0000000000,809000.0000000000,779.0000000000,0.0000000000,293u,27.0000000000,22.0000000000,35.6310581813,1.0000000000,68.0000000000,-68.0000000000,70.0000000000,0.0000000000,1.0000000000
2024-10-22 23:40:19.815432,29.9550412477,12.5870000000,6.0000000000,35.7275316455,-78.6964356832,10.0000000000,-0.2159610426,0.0148644893,1.7636984404,-4.6904124769,-0.0136984404,-1.3183398212,0.0000000000,0.0000000000,34000000.0000000000,814000.0000000000,834.0000000000,0.0000000000,-262u,27.0000000000,22.0000000000,36.6301559617,1.0000000000,68.0000000000,-68.0000000000,70.0000000000,0.0000000000,1.0000000000
2024-10-22 23:40:20.815353,29.9636596930,12.5870000000,6.0000000000,35.7275477246,-78.6964883664,10.0000000000,-0.2112008807,0.0193550484,1.7725770955,-4.7388656432,-0.0037114523,-1.3452599433,0.0000000000,0.0000000000,34000000.0000000000,796000.0000000000,834.0000000000,0.0000000000,-0.0017,27.0000000000,22.0000000000,37.6288547745,1.0000000000,68.0000000000,-68.0000000000,70.0000000000,0.0000000000,1.0000000000
2024-10-22 23:40:21.815407,29.9707628352,12.5870000000,6.0000000000,35.7275637969,-78.6965410502,10.0000000000,-0.2086873674,0.0182140085,1.7674572161,-4.7374572161,0.0000000000,-1.3431690388,0.0000000000,0.0000000000,34000000.0000000000,797000.0000000000,890.0000000000,0.0000000000,-0.0012,27.0000000000,22.0000000000,38.6271391972,1.0000000000,68.0000000000,-68.0000000000,70.0000000000,0.0000000000,1.0000000000
2024-10-22 23:40:22.815278,29.9755009760,12.5870000000,6.0000000000,35.7275797414,-78.6965934628,10.0000000000,-0.2063882102,0.0178325847,1.7600000000,-4.7174951198,0.0000000000,-1.3333711039,0.0000000000,0.0000000000,34000000.0000000000,766000.0000000000,890.0000000000,0.0000000000,-561u,27.0000000000,22.0000000000,39.6252440077,1.0000000000,68.0000000000,-68.0000000000,70.0000000000,0.0000000000,1.0000000000
2024-10-22 23:40:23.815425,29.9782477486,12.5870000000,6.0000000000,35.7275955572,-78.6966456039,10.0000000000,-0.2066225099,0.0207153716,1.7600000000,-4.6912837707,0.0000000000,-1.3442234394,0.0000000000,0.0000000000,34000000.0000000000,788000.0000000000,834.0000000000,0.0000000000,-248u,27.0000000000,22.0000000000,40.6238743091,1.0000000000,68.0000000000,-68.0000000000,70.0000000000,0.0000000000,1.0000000000
2024-10-22 23:40:24.815340,29.9802440515,12.5870000000,6.0000000000,35.7276113280,-78.6966974209,10.0000000000,-0.2084652874,0.0198731646,1.7600000000,-4.6862202574,0.0000000000,-1.3374767686,0.0000000000,0.0000000000,34000000.0000000000,802000.0000000000,890.0000000000,0.0000000000,-405u,27.0000000000,22.0000000000,41.6220257402,1.0000000000,68.0000000000,-68.0000000000,70.0000000000,0.0000000000,1.0000000000
2024-10-22 23:40:25.815374,29.9822407569,12.5870000000,6.0000000000,35.7276271020,-78.6967492597,10.0000000000,-0.2078954287,0.0205037958,1.7600000000,-4.6837962154,0.0000000000,-1.3396996994,0.0000000000,0.0000000000,34000000.0000000000,788000.0000000000,890.0000000000,0.0000000000,-404u,27.0000000000,22.0000000000,42.6203784577,1.0000000000,67.0000000000,-67.0000000000,71.0000000000,0.0000000000,1.0000000000
2024-10-22 23:40:26.815423,29.9836185869,12.5870000000,6.0000000000,35.7276429355,-78.6968010428,10.0000000000,-0.2070390678,0.0202363588,1.7600000000,-4.6800000000,0.0000000000,-1.3404675038,0.0000000000,0.0000000000,34000000.0000000000,794000.0000000000,723.0000000000,0.0000000000,-153u,27.0000000000,22.0000000000,43.6185868736,1.0000000000,67.0000000000,-67.0000000000,71.0000000000,0.0000000000,1.0000000000
2024-10-22 23:40:27.815304,29.9833834017,12.5870000000,6.0000000000,35.7276587423,-78.6968527398,10.0000000000,-0.2086632632,0.0202293812,1.7600000000,-4.6676680345,0.0000000000,-1.3387575730,0.0000000000,0.0000000000,34000000.0000000000,798000.0000000000,834.0000000000,0.0000000000,435u,27.0000000000,22.0000000000,44.6165982774,1.0000000000,67.0000000000,-67.0000000000,71.0000000000,0.0000000000,1.0000000000
2024-10-22 23:40:28.815304,29.9848448159,12.5870000000,6.0000000000,35.7276744545,-78.6969043308,10.0000000000,-0.2099396934,0.0206930918,1.7661493865,-4.6784481594,0.0000000000,-1.3400651298,0.0000000000,0.0000000000,34000000.0000000000,775000.0000000000,779.0000000000,0.0000000000,-435u,27.0000000000,22.0000000000,45.6149386479,1.0000000000,67.0000000000,-67.0000000000,71.0000000000,0.0000000000,1.0000000000
2024-10-22 23:40:29.815393,29.9866132738,12.5870000000,6.0000000000,35.7276903124,-78.6969560902,10.0000000000,-0.2079515289,0.0202087363,1.7638672620,-4.6777345241,0.0061327380,-1.3395328719,0.0000000000,0.0000000000,34000000.0000000000,814000.0000000000,834.0000000000,0.0000000000,-919u,27.0000000000,22.0000000000,46.6132737958,1.0000000000,67.0000000000,-67.0000000000,71.0000000000,0.0000000000,1.0000000000
2024-10-22 23:40:30.815284,29.9857764911,12.5870000000,6.0000000000,35.7277061657,-78.6970078889,10.0000000000,-0.2072693559,0.0200498856,1.7600000000,-4.6700000000,0.0100000000,-1.3388333042,0.0000000000,0.0000000000,34000000.0000000000,793000.0000000000,779.0000000000,0.0000000000,-406u,27.0000000000,22.0000000000,47.6117544504,1.0000000000,67.0000000000,-67.0000000000,71.0000000000,0.0000000000,1.0000000000
2024-10-22 23:40:31.815375,29.9837787120,12.5870000000,6.0000000000,35.7277220092,-78.6970596924,10.0000000000,-0.2066769357,0.0199731377,1.7600000000,-4.6700000000,0.0038935600,-1.3402135740,0.0000000000,0.0000000000,34000000.0000000000,795000.0000000000,834.0000000000,0.0000000000,-609u,27.0000000000,22.0000000000,48.6106439963,1.0000000000,67.0000000000,-67.0000000000,71.0000000000,0.0000000000,1.0000000000
2024-10-22 23:40:32.815396,29.9830000000,12.5870000000,6.0000000000,35.7277377669,-78.6971113428,10.0000000000,-0.2073532708,0.0199683703,1.7600000000,-4.6700000000,0.0000000000,-1.3402211775,0.0000000000,0.0000000000,34000000.0000000000,806000.0000000000,723.0000000000,0.0000000000,-371u,27.0000000000,22.0000000000,49.6093571321,1.0000000000,67.0000000000,-67.0000000000,71.0000000000,0.0000000000,1.0000000000
2024-10-22 23:40:33.815311,29.9823919954,12.5870000000,6.0000000000,35.7277535673,-78.6971630554,10.0000000000,-0.2079908304,0.0196844298,1.7539199536,-4.6639199536,0.0000000000,-1.3392243238,0.0000000000,0.0000000000,34000000.0000000000,817000.0000000000,1000.0000000000,0.0000000000,-915u,27.0000000000,22.0000000000,50.6080046372,1.0000000000,67.0000000000,-67.0000000000,71.0000000000,0.0000000000,1.0000000000
2024-10-22 23:40:34.815292,29.9820000000,12.5870000000,6.0000000000,35.7277693198,-78.6972146274,10.0000000000,-0.2095126544,0.0201846860,1.7560635649,-4.6721271298,0.0000000000,-1.3400051676,0.0000000000,0.0000000000,34000000.0000000000,788000.0000000000,723.0000000000,0.0000000000,308u,27.0000000000,22.0000000000,51.6063564922,1.0000000000,66.0000000000,-66.0000000000,72.0000000000,0.0000000000,1.0000000000
2024-10-22 23:40:35.815425,29.9826049066,12.5870000000,6.0000000000,35.7277851180,-78.6972662947,10.0000000000,-0.2085856359,0.0201151912,1.7600000000,-4.6800000000,0.0000000000,-1.3400370741,0.0000000000,0.0000000000,34000000.0000000000,792000.0000000000,779.0000000000,0.0000000000,191u,27.0000000000,22.0000000000,52.6049066314,1.0000000000,66.0000000000,-66.0000000000,72.0000000000,0.0000000000,1.0000000000
2024-10-22 23:40:36.815369,29.9836035282,12.5870000000,6.0000000000,35.7278009357,-78.6973180628,10.0000000000,-0.2079327504,0.0199479509,1.7600000000,-4.6800000000,0.0000000000,-1.3401277157,0.0000000000,0.0000000000,34000000.0000000000,798000.0000000000,834.0000000000,0.0000000000,-520u,27.0000000000,22.0000000000,53.6035282083,1.0000000000,66.0000000000,-66.0000000000,72.0000000000,0.0000000000,1.0000000000
2024-10-22 23:40:37.815368,29.9858053770,12.5870000000,6.0000000000,35.7278167685,-78.6973698932,10.0000000000,-0.2065180043,0.0195751725,1.7539820765,-4.6739820765,0.0000000000,-1.3405446159,0.0000000000,0.0000000000,34000000.0000000000,802000.0000000000,890.0000000000,0.0000000000,166u,27.0000000000,22.0000000000,54.6017923463,1.0000000000,66.0000000000,-66.0000000000,72.0000000000,0.0000000000,1.0000000000
2024-10-22 23:40:38.815395,29.9852018474,12.5870000000,6.0000000000,35.7278325703,-78.6974214083,10.0000000000,-0.2086801232,0.0198686562,1.7500000000,-4.6759938420,0.0000000000,-1.3401810842,0.0000000000,0.0000000000,34000000.0000000000,790000.0000000000,834.0000000000,0.0000000000,164u,27.0000000000,22.0000000000,55.5993841975,1.0000000000,66.0000000000,-66.0000000000,72.0000000000,0.0000000000,1.0000000000
2024-10-22 23:40:39.815350,29.9840000000,12.5870000000,6.0000000000,35.7278483309,-78.6974730385,10.0000000000,-0.2079347691,0.0197036283,1.7500000000,-4.6800000000,0.0000000000,-1.3402494137,0.0000000000,0.0000000000,34000000.0000000000,809000.0000000000,890.0000000000,0.0000000000,310u,27.0000000000,22.0000000000,56.5968944669,1.0000000000,66.0000000000,-66.0000000000,72.0000000000,0.0000000000,1.0000000000
2024-10-22 23:40:40.815656,29.9840000000,12.5870000000,6.0000000000,35.7278641073,-78.6975247820,10.0000000000,-0.2081286947,0.0196048873,1.7500000000,-4.6800000000,0.0000000000,-1.3399726222,0.0000000000,0.0000000000,34000000.0000000000,799000.0000000000,779.0000000000,0.0000000000,-136u,27.0000000000,22.0000000000,57.5953957879,1.0000000000,66.0000000000,-66.0000000000,72.0000000000,0.0000000000,1.0000000000
2024-10-22 23:40:41.815363,29.9845933851,12.5870000000,6.0000000000,35.7278799348,-78.6975764967,10.0000000000,-0.2074420292,0.0196479774,1.7500000000,-4.6800000000,0.0000000000,-1.3402262329,0.0000000000,0.0000000000,34000000.0000000000,794000.0000000000,890.0000000000,0.0000000000,-572u,27.0000000000,22.0000000000,58.5933851017,1.0000000000,65.0000000000,-65.0000000000,72.0000000000,0.0000000000,1.0000000000
2024-10-22 23:40:42.815346,29.9850000000,12.5870000000,6.0000000000,35.7278957452,-78.6976281196,10.0000000000,-0.2087055914,0.0197900957,1.7500000000,-4.6800000000,0.0000000000,-1.3405003994,0.0000000000,0.0000000000,34000000.0000000000,796000.0000000000,890.0000000000,0.0000000000,-18u,27.0000000000,22.0000000000,59.5914654135,1.0000000000,65.0000000000,-65.0000000000,73.0000000000,0.0000000000,1.0000000000
2024-10-22 23:40:43.815417,29.9850000000,12.5870000000,6.0000000000,35.7279115155,-78.6976798585,10.0000000000,-0.2065040683,0.0193096158,1.7500000000,-4.6858958696,0.0000000000,-1.3403403169,0.0000000000,0.0000000000,34000000.0000000000,826000.0000000000,890.0000000000,0.0000000000,367u,27.0000000000,22.0000000000,60.5895869576,1.0000000000,65.0000000000,-65.0000000000,73.0000000000,0.0000000000,1.0000000000
2024-10-22 23:40:44.815393,29.9855881367,12.5870000000,6.0000000000,35.7279272926,-78.6977315479,10.0000000000,-0.2073812238,0.0198253410,1.7500000000,-4.6841186325,0.0000000000,-1.3405952160,0.0000000000,0.0000000000,34000000.0000000000,777000.0000000000,779.0000000000,0.0000000000,-153u,27.0000000000,22.0000000000,61.5881367470,1.0000000000,65.0000000000,-65.0000000000,73.0000000000,0.0000000000,1.0000000000
2024-10-22 23:40:45.815432,29.9860000000,12.5870000000,6.0000000000,35.7279430752,-78.6977832086,10.0000000000,-0.2084634703,0.0196549460,1.7500000000,-4.6858703888,0.0000000000,-1.3401346069,0.0000000000,0.0000000000,34000000.0000000000,801000.0000000000,834.0000000000,0.0000000000,-246u,27.0000000000,22.0000000000,62.5870388771,1.0000000000,65.0000000000,-65.0000000000,73.0000000000,0.0000000000,1.0000000000
2024-10-22 23:40:46.815398,29.9860000000,12.5870000000,6.0000000000,35.7279589095,-78.6978349289,10.0000000000,-0.2077528736,0.0192153794,1.7500000000,-4.6841449995,0.0000000000,-1.3401434535,0.0000000000,0.0000000000,34000000.0000000000,789000.0000000000,834.0000000000,0.0000000000,-105u,27.0000000000,22.0000000000,63.5855000537,1.0000000000,65.0000000000,-65.0000000000,73.0000000000,0.0000000000,1.0000000000
2024-10-22 23:40:47.815391,29.9865837626,12.5870000000,6.0000000000,35.7279747234,-78.6978866973,10.0000000000,-0.2066104062,0.0191646638,1.7500000000,-4.6800000000,0.0000000000,-1.3401150077,0.0000000000,0.0000000000,34000000.0000000000,806000.0000000000,779.0000000000,0.0000000000,-329u,27.0000000000,22.0000000000,64.5837626445,1.0000000000,65.0000000000,-65.0000000000,73.0000000000,0.0000000000,1.0000000000
2024-10-22 23:40:48.815379,29.9870000000,12.5870000000,6.0000000000,35.7279905008,-78.6979382899,10.0000000000,-0.2091480382,0.0195749429,1.7500000000,-4.6800000000,0.0000000000,-1.3399373606,0.0000000000,0.0000000000,34000000.0000000000,777000.0000000000,779.0000000000,0.0000000000,-342u,27.0000000000,22.0000000000,65.5823272019,1.0000000000,64.0000000000,-64.0000000000,73.0000000000,0.0000000000,1.0000000000
2024-10-22 23:40:49.815333,29.9870000000,12.5870000000,6.0000000000,35.7280062820,-78.6979899029,10.0000000000,-0.2097908779,0.0196031501,1.7558113679,-4.6916227358,0.0000000000,-1.3399799674,0.0000000000,0.0000000000,33000000.0000000000,786000.0000000000,723.0000000000,0.0000000000,140u,27.0000000000,22.0000000000,66.5811367893,1.0000000000,64.0000000000,-64.0000000000,74.0000000000,0.0000000000,1.0000000000
2024-10-22 23:40:50.815291,29.9875796130,12.5870000000,6.0000000000,35.7280221158,-78.6980416819,10.0000000000,-0.2083704307,0.0195549014,1.7542038696,-4.6942038696,0.0000000000,-1.3397221456,0.0000000000,0.0000000000,34000000.0000000000,787000.0000000000,779.0000000000,0.0000000000,502u,27.0000000000,22.0000000000,67.5796130391,1.0000000000,64.0000000000,-64.0000000000,74.0000000000,0.0000000000,1.0000000000
2024-10-22 23:40:51.815369,29.9880000000,12.5870000000,6.0000000000,35.7280379349,-78.6980935064,10.0000000000,-0.2079362393,0.0192775815,1.7500000000,-4.6900000000,0.0000000000,-1.3400790368,0.0000000000,0.0000000000,34000000.0000000000,768000.0000000000,834.0000000000,0.0000000000,173u,27.0000000000,22.0000000000,68.5781585978,1.0000000000,64.0000000000,-64.0000000000,74.0000000000,0.0000000000,1.0000000000
2024-10-22 23:40:52.815307,29.9880000000,12.5870000000,6.0000000000,35.7280537111,-78.6981452707,10.0000000000,-0.2075313919,0.0190652642,1.7500000000,-4.6842334566,0.0000000000,-1.3406067994,0.0000000000,0.0000000000,34000000.0000000000,787000.0000000000,779.0000000000,0.0000000000,-452u,27.0000000000,22.0000000000,69.5766543442,1.0000000000,64.0000000000,-64.0000000000,74.0000000000,0.0000000000,1.0000000000
2024-10-22 23:40:53.815356,29.9885750072,12.5870000000,6.0000000000,35.7280694851,-78.6981969279,10.0000000000,-0.2080241760,0.0191187781,1.7500000000,-4.6857500724,0.0000000000,-1.3402225552,0.0000000000,0.0000000000,34000000.0000000000,797000.0000000000,890.0000000000,0.0000000000,-489u,27.0000000000,22.0000000000,70.5750072378,1.0000000000,64.0000000000,-64.0000000000,74.0000000000,0.0000000000,1.0000000000
2024-10-22 23:40:54.815299,29.9890000000,12.5870000000,6.0000000000,35.7280852539,-78.6982485256,10.0000000000,-0.2095249090,0.0194207055,1.7500000000,-4.6842697072,0.0000000000,-1.3401561631,0.0000000000,0.0000000000,34000000.0000000000,801000.0000000000,890.0000000000,0.0000000000,-0.0013000000000000002,27.0000000000,22.0000000000,71.5730292755,1.0000000000,63.0000000000,-63.0000000000,74.0000000000,0.0000000000,1.0000000000
2024-10-22 23:40:55.815313,29.9901420936,12.5870000000,6.0000000000,35.7281010225,-78.6983000660,10.0000000000,-0.2105485896,0.0194395169,1.7500000000,-4.6914209361,0.0000000000,-1.3402442949,0.0000000000,0.0000000000,34000000.0000000000,791000.0000000000,779.0000000000,0.0000000000,-854u,27.0000000000,22.0000000000,72.5710468031,1.0000000000,63.0000000000,-63.0000000000,74.0000000000,0.0000000000,1.0000000000
2024-10-22 23:40:56.815395,29.9915687119,12.5870000000,6.0000000000,35.7281168425,-78.6983517730,10.0000000000,-0.2092604808,0.0190432710,1.7500000000,-4.6943128807,0.0000000000,-1.3405801982,0.0000000000,0.0000000000,34000000.0000000000,820000.0000000000,834.0000000000,0.0000000000,-291u,27.0000000000,22.0000000000,73.5687119312,1.0000000000,63.0000000000,-63.0000000000,75.0000000000,0.0000000000,1.0000000000
2024-10-22 23:40:57.815330,29.9908677272,12.5870000000,6.0000000000,35.7281326450,-78.6984034693,10.0000000000,-0.2085935215,0.0188145111,1.7500000000,-4.6900000000,0.0000000000,-1.3401459925,0.0000000000,0.0000000000,34000000.0000000000,777000.0000000000,779.0000000000,0.0000000000,-531u,27.0000000000,22.0000000000,74.5661364162,1.0000000000,63.0000000000,-63.0000000000,75.0000000000,0.0000000000,1.0000000000
2024-10-22 23:40:58.815301,29.9905638732,12.5870000000,6.0000000000,35.7281484656,-78.6984552214,10.0000000000,-0.2084049482,0.0187336889,1.7443612678,-4.6843612678,0.0000000000,-1.3402081909,0.0000000000,0.0000000000,34000000.0000000000,787000.0000000000,834.0000000000,0.0000000000,-909u,27.0000000000,22.0000000000,75.5638732220,1.0000000000,63.0000000000,-63.0000000000,75.0000000000,0.0000000000,1.0000000000
2024-10-22 23:40:59.815361,29.9910000000,12.5870000000,6.0000000000,35.7281642212,-78.6985068359,10.0000000000,-0.2099404257,0.0189584163,1.7456186166,-4.6856186166,0.0000000000,-1.3400480800,0.0000000000,0.0000000000,34000000.0000000000,820000.0000000000,779.0000000000,0.0000000000,-595u,27.0000000000,22.0000000000,76.5618616556,1.0000000000,63.0000000000,-63.0000000000,75.0000000000,0.0000000000,1.0000000000
2024-10-22 23:41:00.815341,29.9910000000,12.5870000000,6.0000000000,35.7281800052,-78.6985584678,10.0000000000,-0.2094556368,0.0188488467,1.7500000000,-4.6900000000,0.0000000000,-1.3400194144,0.0000000000,0.0000000000,34000000.0000000000,838000.0000000000,834.0000000000,0.0000000000,-568u,27.0000000000,22.0000000000,77.5600741639,1.0000000000,62.0000000000,-62.0000000000,75.0000000000,0.0000000000,1.0000000000
2024-10-22 23:41:01.815301,29.9910000000,12.5870000000,6.0000000000,35.7281958180,-78.6986102096,10.0000000000,-0.2085269239,0.0185672502,1.7500000000,-4.6900000000,0.0000000000,-1.3399028959,0.0000000000,0.0000000000,34000000.0000000000,809000.0000000000,834.0000000000,0.0000000000,-494u,27.0000000000,22.0000000000,78.5581006022,1.0000000000,62.0000000000,-62.0000000000,75.0000000000,0.0000000000,1.0000000000
2024-10-22 23:41:02.815468,29.9915560467,12.5870000000,6.0000000000,35.7282116411,-78.6986620144,10.0000000000,-0.2067011649,0.0181337916,1.7444395328,-4.6844395328,0.0000000000,-1.3399536173,0.0000000000,0.0000000000,34000000.0000000000,801000.0000000000,890.0000000000,0.0000000000,-307u,27.0000000000,22.0000000000,79.5560467203,1.0000000000,62.0000000000,-62.0000000000,76.0000000000,0.0000000000,1.0000000000
2024-10-22 23:41:03.815391,29.9936625475,12.5870000000,6.0000000000,35.7282274007,-78.6987135850,10.0000000000,-0.2089931083,0.0186421967,1.7400000000,-4.6800000000,0.0000000000,-1.3402154518,0.0000000000,0.0000000000,34000000.0000000000,788000.0000000000,890.0000000000,0.0000000000,-67u,27.0000000000,22.0000000000,80.5541824988,1.0000000000,62.0000000000,-62.0000000000,76.0000000000,0.0000000000,1.0000000000
2024-10-22 23:41:04.815364,29.9944474932,12.5870000000,6.0000000000,35.7282431849,-78.6987652304,10.0000000000,-0.2092482331,0.0183271562,1.7455250678,-4.6855250678,0.0000000000,-1.3401450566,0.0000000000,0.0000000000,34000000.0000000000,831000.0000000000,779.0000000000,0.0000000000,-566u,27.0000000000,22.0000000000,81.5525067774,1.0000000000,62.0000000000,-62.0000000000,76.0000000000,0.0000000000,1.0000000000
2024-10-22 23:41:05.815356,29.9934491099,12.5870000000,6.0000000000,35.7282589490,-78.6988169259,10.0000000000,-0.2095085165,0.0180614214,1.7500000000,-4.6900000000,0.0000000000,-1.3398531840,0.0000000000,0.0000000000,34000000.0000000000,826000.0000000000,834.0000000000,0.0000000000,-377u,27.0000000000,22.0000000000,82.5508900984,1.0000000000,61.0000000000,-61.0000000000,76.0000000000,0.0000000000,1.0000000000
2024-10-22 23:41:06.815305,29.9930000000,12.5870000000,6.0000000000,35.7282747289,-78.6988685923,10.0000000000,-0.2094056339,0.0181950917,1.7500000000,-4.6954898467,0.0000000000,-1.3399734664,0.0000000000,0.0000000000,34000000.0000000000,819000.0000000000,890.0000000000,0.0000000000,61u,27.0000000000,22.0000000000,83.5489846730,1.0000000000,61.0000000000,-61.0000000000,76.0000000000,0.0000000000,1.0000000000
2024-10-22 23:41:07.815378,29.9935471546,12.5870000000,6.0000000000,35.7282905450,-78.6989203426,10.0000000000,-0.2082146230,0.0178434747,1.7500000000,-4.6945284544,0.0000000000,-1.3400858647,0.0000000000,0.0000000000,34000000.0000000000,792000.0000000000,834.0000000000,0.0000000000,-647u,27.0000000000,22.0000000000,84.5471545588,1.0000000000,61.0000000000,-61.0000000000,76.0000000000,0.0000000000,1.0000000000
2024-10-22 23:41:08.815344,29.9956370649,12.5870000000,6.0000000000,35.7283063764,-78.6989721758,10.0000000000,-0.2065398220,0.0174972824,1.7500000000,-4.6845431169,0.0000000000,-1.3397529763,0.0000000000,0.0000000000,34000000.0000000000,815000.0000000000,779.0000000000,0.0000000000,-659u,27.0000000000,22.0000000000,85.5456883084,1.0000000000,61.0000000000,-61.0000000000,77.0000000000,0.0000000000,1.0000000000
2024-10-22 23:41:09.815302,29.9970000000,12.5870000000,6.0000000000,35.7283221322,-78.6990237333,10.0000000000,-0.2090439683,0.0177335332,1.7500000000,-4.6854344947,0.0000000000,-1.3397897098,0.0000000000,0.0000000000,34000000.0000000000,802000.0000000000,723.0000000000,0.0000000000,-116u,27.0000000000,22.0000000000,86.5434494749,1.0000000000,61.0000000000,-61.0000000000,77.0000000000,0.0000000000,1.0000000000
2024-10-22 23:41:10.815267,29.9959174586,12.5870000000,6.0000000000,35.7283378521,-78.6990751837,10.0000000000,-0.2109192596,0.0179959495,1.7500000000,-4.7008254138,0.0000000000,-1.3399628331,0.0000000000,0.0000000000,34000000.0000000000,813000.0000000000,834.0000000000,0.0000000000,-438u,27.0000000000,22.0000000000,87.5412706885,1.0000000000,60.0000000000,-60.0000000000,77.0000000000,0.0000000000,1.0000000000
2024-10-22 23:41:11.815345,29.9950000000,12.5870000000,6.0000000000,35.7283536820,-78.6991269669,10.0000000000,-0.2090100965,0.0179031806,1.7500000000,-4.7046025268,0.0000000000,-1.3401758096,0.0000000000,0.0000000000,34000000.0000000000,811000.0000000000,834.0000000000,0.0000000000,-405u,27.0000000000,22.0000000000,88.5397473202,1.0000000000,60.0000000000,-60.0000000000,77.0000000000,0.0000000000,1.0000000000
2024-10-22 23:41:12.815294,29.9955381752,12.5870000000,6.0000000000,35.7283695032,-78.6991788851,10.0000000000,-0.2072076118,0.0177406982,1.7500000000,-4.6946182478,0.0000000000,-1.3400380597,0.0000000000,0.0000000000,34000000.0000000000,791000.0000000000,723.0000000000,0.0000000000,25u,27.0000000000,22.0000000000,89.5381752184,1.0000000000,60.0000000000,-60.0000000000,77.0000000000,0.0000000000,1.0000000000
2024-10-22 23:41:13.815368,29.9976101495,12.5870000000,6.0000000000,35.7283853338,-78.6992306482,10.0000000000,-0.2078097849,0.0175240985,1.7446328350,-4.6792656700,0.0000000000,-1.3394895417,0.0000000000,0.0000000000,34000000.0000000000,783000.0000000000,890.0000000000,0.0000000000,-244u,27.0000000000,22.0000000000,90.5367165005,1.0000000000,60.0000000000,-60.0000000000,78.0000000000,0.0000000000,1.0000000000
2024-10-22 23:41:14.815297,29.9990000000,12.5870000000,6.0000000000,35.7284011483,-78.6992822443,10.0000000000,-0.2083669886,0.0173910013,1.7453470508,-4.6806941015,0.0000000000,-1.3397260319,0.0000000000,0.0000000000,34000000.0000000000,802000.0000000000,890.0000000000,0.0000000000,-396u,27.0000000000,22.0000000000,91.5347050768,1.0000000000,59.0000000000,-59.0000000000,78.0000000000,0.0000000000,1.0000000000
2024-10-22 23:41:15.815304,29.9979337887,12.5870000000,6.0000000000,35.7284168698,-78.6993338083,10.0000000000,-0.2098123638,0.0177827414,1.7500000000,-4.6900000000,0.0000000000,-1.3402327801,0.0000000000,0.0000000000,34000000.0000000000,805000.0000000000,834.0000000000,0.0000000000,-106u,27.0000000000,22.0000000000,92.5331056507,1.0000000000,59.0000000000,-59.0000000000,78.0000000000,0.0000000000,1.0000000000
2024-10-22 23:41:16.815298,29.9970000000,12.5870000000,6.0000000000,35.7284325938,-78.6993853657,10.0000000000,-0.2114420016,0.0179818296,1.7500000000,-4.7006250437,0.0000000000,-1.3400903372,0.0000000000,0.0000000000,34000000.0000000000,791000.0000000000,723.0000000000,0.0000000000,-266u,27.0000000000,22.0000000000,93.5312521866,1.0000000000,59.0000000000,-59.0000000000,78.0000000000,0.0000000000,1.0000000000
2024-10-22 23:41:17.815365,29.9985884697,12.5870000000,6.0000000000,35.7284484189,-78.6994370805,10.0000000000,-0.2100856408,0.0176135304,1.7500000000,-4.7047051010,0.0000000000,-1.3403540121,0.0000000000,0.0000000000,34000000.0000000000,786000.0000000000,779.0000000000,0.0000000000,-596u,27.0000000000,22.0000000000,94.5294898965,1.0000000000,59.0000000000,-59.0000000000,78.0000000000,0.0000000000,1.0000000000
2024-10-22 23:41:18.815391,30.0005279717,12.5870000000,6.0000000000,35.7284642420,-78.6994889545,10.0000000000,-0.2085346274,0.0171168987,1.7500000000,-4.7000000000,0.0000000000,-1.3404782837,0.0000000000,0.0000000000,34000000.0000000000,784000.0000000000,890.0000000000,0.0000000000,-428u,27.0000000000,22.0000000000,95.5279717188,1.0000000000,58.0000000000,-58.0000000000,79.0000000000,0.0000000000,1.0000000000
2024-10-22 23:41:19.815295,29.9999473735,12.5870000000,6.0000000000,35.7284800684,-78.6995407630,10.0000000000,-0.2089454066,0.0170976254,1.7447368675,-4.6894737351,0.0000000000,-1.3396586584,0.0000000000,0.0000000000,34000000.0000000000,794000.0000000000,834.0000000000,0.0000000000,-527u,27.0000000000,22.0000000000,96.5263132464,1.0000000000,58.0000000000,-58.0000000000,79.0000000000,0.0000000000,1.0000000000
2024-10-22 23:41:20.815336,29.9984751562,12.5870000000,6.0000000000,35.7284958400,-78.6995923295,10.0000000000,-0.2105996400,0.0174819472,1.7452484377,-4.6904968754,0.0000000000,-1.3396944594,0.0000000000,0.0000000000,34000000.0000000000,776000.0000000000,779.0000000000,0.0000000000,-537u,27.0000000000,22.0000000000,97.5248437720,1.0000000000,58.0000000000,-58.0000000000,79.0000000000,0.0000000000,1.0000000000
2024-10-22 23:41:21.815288,29.9995691365,12.5870000000,6.0000000000,35.7285116164,-78.6996439461,10.0000000000,-0.2102492456,0.0173299015,1.7500000000,-4.7000000000,0.0000000000,-1.3398882295,0.0000000000,0.0000000000,34000000.0000000000,804000.0000000000,779.0000000000,0.0000000000,-158u,27.0000000000,22.0000000000,98.5230455048,1.0000000000,57.0000000000,-57.0000000000,79.0000000000,0.0000000000,1.0000000000
2024-10-22 23:41:22.815375,30.0015214610,12.5870000000,6.0000000000,35.7285274391,-78.6996957117,10.0000000000,-0.2092665085,0.0173305632,1.7500000000,-4.7000000000,0.0000000000,-1.3399253094,0.0000000000,0.0000000000,34000000.0000000000,801000.0000000000,890.0000000000,0.0000000000,19u,27.0000000000,22.0000000000,99.5214610359,1.0000000000,57.0000000000,-57.0000000000,79.0000000000,0.0000000000,1.0000000000
2024-10-22 23:41:23.815348,30.0025196698,12.5870000000,6.0000000000,35.7285432627,-78.6997475228,10.0000000000,-0.1815223592,0.0139302254,1.7344099062,-4.6584264164,0.0000000000,-1.3398148482,0.0000000000,0.0000000000,34000000.0000000000,774000.0000000000,723.0000000000,0.0000000000,-89u,27.0000000000,22.0000000000,100.5196697945,1.0000000000,57.0000000000,-57.0000000000,80.0000000000,0.0000000000,1.0000000000
2024-10-22 23:41:24.815397,30.0009299686,12.5870000000,6.0000000000,35.7285581969,-78.6997964606,10.0000000000,-0.0884213061,0.0025608283,1.5388722561,-4.1438927876,0.0000000000,-1.3391878744,0.0000000000,0.0000000000,34000000.0000000000,798000.0000000000,890.0000000000,0.0000000000,-221u,27.0000000000,22.0000000000,101.5175078396,1.0000000000,56.0000000000,-56.0000000000,80.0000000000,0.0000000000,1.0000000000
2024-10-22 23:41:25.815322,29.9979687444,12.5870000000,6.0000000000,35.7285703110,-78.6998363313,10.0000000000,0.0323670463,-0.0101963195,1.1018735520,-3.0039024908,0.0000000000,-1.3399382213,0.0000000000,0.0000000000,34000000.0000000000,814000.0000000000,723.0000000000,0.0000000000,-368u,27.0000000000,22.0000000000,102.5156277846,1.0000000000,56.0000000000,-56.0000000000,80.0000000000,0.0000000000,1.0000000000
2024-10-22 23:41:26.815385,29.9980278938,12.5870000000,6.0000000000,35.7285779211,-78.6998613829,10.0000000000,0.1072239958,-0.0166653289,0.5364923845,-1.5071270664,0.0000000000,-1.3408500810,0.0000000000,0.0000000000,34000000.0000000000,795000.0000000000,779.0000000000,0.0000000000,-294u,27.0000000000,22.0000000000,103.5139469107,1.0000000000,56.0000000000,-56.0000000000,80.0000000000,0.0000000000,1.0000000000
2024-10-22 23:41:27.815299,29.9974655420,12.5870000000,6.0000000000,35.7285807580,-78.6998707276,10.0000000000,0.0815637600,-0.0116532743,0.0916690615,-0.3059260640,0.0000000000,-1.3403669273,0.0000000000,0.0000000000,34000000.0000000000,795000.0000000000,834.0000000000,0.0000000000,-293u,27.0000000000,22.0000000000,104.5114859949,1.0000000000,56.0000000000,-56.0000000000,80.0000000000,0.0000000000,1.0000000000
2024-10-22 23:41:28.815393,29.9944712964,12.5870000000,6.0000000000,35.7285807943,-78.6998706770,10.0000000000,0.0174396733,-0.0032936153,-0.0652870356,0.1258611068,0.0000000000,-1.3397331072,0.0000000000,0.0000000000,34000000.0000000000,805000.0000000000,834.0000000000,0.0000000000,-247u,27.0000000000,22.0000000000,105.5095678535,1.0000000000,56.0000000000,-56.0000000000,80.0000000000,0.0000000000,1.0000000000
2024-10-22 23:41:29.815349,29.9935079901,12.5870000000,6.0000000000,35.7285801952,-78.6998684332,10.0000000000,-0.0048102050,-0.0030300114,-0.0596803965,0.1242808921,0.0000000000,-1.0731883461,0.0000000000,0.0000000000,34000000.0000000000,796000.0000000000,834.0000000000,0.0000000000,-435u,27.0000000000,22.0000000000,106.5079900876,1.0000000000,56.0000000000,-56.0000000000,80.0000000000,0.0000000000,1.0000000000
2024-10-22 23:41:30.815408,29.9945065293,12.5870000000,6.0000000000,35.7285797480,-78.6998668428,10.0000000000,-0.0010921959,-0.0047521184,-0.0298694131,0.0496082394,0.0000000000,-0.0505716045,0.0000000000,0.0000000000,34000000.0000000000,821000.0000000000,723.0000000000,0.0000000000,-367u,27.0000000000,22.0000000000,107.5065293426,1.0000000000,56.0000000000,-56.0000000000,80.0000000000,0.0000000000,1.0000000000
2024-10-22 23:41:31.815370,29.9944949364,12.5870000000,6.0000000000,35.7285813172,-78.6998644818,10.0000000000,-0.1361976492,-0.0719674341,0.6416332789,0.4796078503,0.0000000000,0.8907853461,0.0000000000,0.0000000000,34000000.0000000000,782000.0000000000,834.0000000000,0.0000000000,156u,27.0000000000,22.0000000000,108.5050635717,1.0000000000,56.0000000000,-56.0000000000,80.0000000000,0.0000000000,1.0000000000
2024-10-22 23:41:32.815278,29.9960142291,12.5870000000,6.0000000000,35.7285932726,-78.6998536863,10.0000000000,-0.3099840651,-0.0460508082,2.2820078088,1.6349801687,0.0000000000,0.7815096479,0.0000000000,0.0000000000,34000000.0000000000,781000.0000000000,779.0000000000,0.0000000000,68u,27.0000000000,22.0000000000,109.5035572634,1.0000000000,56.0000000000,-56.0000000000,80.0000000000,0.0000000000,1.0000000000
2024-10-22 23:41:33.815338,29.9980000000,12.5870000000,6.0000000000,35.7286200818,-78.6998300778,10.0000000000,-0.2835737062,0.0079382912,3.5815775191,2.5510845444,0.0000000000,0.6139543697,0.0000000000,0.0000000000,34000000.0000000000,792000.0000000000,779.0000000000,0.0000000000,-335u,27.0000000000,22.0000000000,110.5024648737,1.0000000000,56.0000000000,-56.0000000000,80.0000000000,0.0000000000,1.0000000000
2024-10-22 23:41:34.815348,29.9959936982,12.5870000000,6.0000000000,35.7286548072,-78.6997997004,10.0000000000,-0.2226879699,-0.0209609506,3.9902835806,2.8201575448,0.0000000000,0.7370333651,0.0000000000,0.0000000000,34000000.0000000000,780000.0000000000,779.0000000000,0.0000000000,-138u,27.0000000000,22.0000000000,111.5015754476,1.0000000000,56.0000000000,-56.0000000000,80.0000000000,0.0000000000,1.0000000000
2024-10-22 23:41:35.815334,29.9945002790,12.5870000000,6.0000000000,35.7286915104,-78.6997677409,10.0000000000,-0.2215428944,-0.0081104363,4.1050139488,2.9200278976,0.0000000000,0.6873703551,0.0000000000,0.0000000000,34000000.0000000000,791000.0000000000,834.0000000000,0.0000000000,-69u,27.0000000000,22.0000000000,112.5002789757,1.0000000000,56.0000000000,-56.0000000000,80.0000000000,0.0000000000,1.0000000000
2024-10-22 23:41:36.815349,29.9959974830,12.5870000000,6.0000000000,35.7287287031,-78.6997350914,10.0000000000,-0.2173286207,-0.0110446169,4.1449622443,2.9700000000,0.0000000000,0.6906053808,0.0000000000,0.0000000000,34000000.0000000000,812000.0000000000,834.0000000000,0.0000000000,-172u,27.0000000000,22.0000000000,113.4987414755,1.0000000000,57.0000000000,-57.0000000000,80.0000000000,0.0000000000,1.0000000000
2024-10-22 23:41:37.815484,29.9979943161,12.5870000000,6.0000000000,35.7287659937,-78.6997022932,10.0000000000,-0.2117194670,-0.0136658115,4.1500568394,2.9600568394,0.0000000000,0.7087876228,0.0000000000,0.0000000000,34000000.0000000000,806000.0000000000,945.0000000000,0.0000000000,124u,27.0000000000,22.0000000000,114.4971580282,1.0000000000,57.0000000000,-57.0000000000,80.0000000000,0.0000000000,1.0000000000
2024-10-22 23:41:38.815383,29.9994951715,12.5870000000,6.0000000000,35.7288030718,-78.6996696574,10.0000000000,-0.2094455112,-0.0108040845,4.1201931402,2.9351448552,0.0000000000,0.6889923712,0.0000000000,0.0000000000,34000000.0000000000,804000.0000000000,723.0000000000,0.0000000000,147u,27.0000000000,22.0000000000,115.4951714942,1.0000000000,57.0000000000,-57.0000000000,79.0000000000,0.0000000000,1.0000000000
2024-10-22 23:41:39.815358,30.0000000000,12.5870000000,6.0000000000,35.7288398624,-78.6996373079,10.0000000000,-0.2093366862,-0.0138231756,4.1000000000,2.9150645619,0.0000000000,0.7014904113,0.0000000000,0.0000000000,34000000.0000000000,783000.0000000000,834.0000000000,0.0000000000,-289u,27.0000000000,22.0000000000,116.4935438085,1.0000000000,58.0000000000,-58.0000000000,79.0000000000,0.0000000000,1.0000000000
2024-10-22 23:41:40.815345,30.0000000000,12.5870000000,6.0000000000,35.7288764660,-78.6996051998,10.0000000000,-0.2111052840,-0.0130742599,4.1000000000,2.9050778182,0.0000000000,0.6971786474,0.0000000000,0.0000000000,34000000.0000000000,796000.0000000000,779.0000000000,0.0000000000,-25u,27.0000000000,22.0000000000,117.4922181814,1.0000000000,58.0000000000,-58.0000000000,79.0000000000,0.0000000000,1.0000000000
2024-10-22 23:41:41.815286,30.0000000000,12.5870000000,6.0000000000,35.7289129613,-78.6995731470,10.0000000000,-0.2135602117,-0.0137017575,4.1049074661,2.9000000000,0.0000000000,0.6962334699,0.0000000000,0.0000000000,34000000.0000000000,795000.0000000000,890.0000000000,0.0000000000,-265u,27.0000000000,22.0000000000,118.4907466147,1.0000000000,58.0000000000,-58.0000000000,79.0000000000,0.0000000000,1.0000000000
2024-10-22 23:41:42.815337,30.0009789337,12.5870000000,6.0000000000,35.7289495634,-78.6995410881,10.0000000000,-0.2123363822,-0.0139700586,4.1100000000,2.9000000000,0.0000000000,0.6992484915,0.0000000000,0.0000000000,34000000.0000000000,796000.0000000000,779.0000000000,0.0000000000,-377u,27.0000000000,22.0000000000,119.4894668537,1.0000000000,58.0000000000,-58.0000000000,78.0000000000,0.0000000000,1.0000000000
2024-10-22 23:41:43.815401,30.0024882315,12.5870000000,6.0000000000,35.7289862181,-78.6995089789,10.0000000000,-0.2109011122,-0.0134058155,4.1051176846,2.8951176846,0.0000000000,0.6964622925,0.0000000000,0.0000000000,34000000.0000000000,782000.0000000000,834.0000000000,0.0000000000,-313u,27.0000000000,22.0000000000,120.4882315442,1.0000000000,59.0000000000,-59.0000000000,78.0000000000,0.0000000000,1.0000000000
2024-10-22 23:41:44.815419,30.0025133012,12.5870000000,6.0000000000,35.7290228618,-78.6994768283,10.0000000000,-0.2102770330,-0.0141997503,4.0951330117,2.8851330117,0.0000000000,0.6983887228,0.0000000000,0.0000000000,34000000.0000000000,765000.0000000000,779.0000000000,0.0000000000,-455u,27.0000000000,22.0000000000,121.4866988260,1.0000000000,59.0000000000,-59.0000000000,78.0000000000,0.0000000000,1.0000000000
2024-10-22 23:41:45.815304,30.0010302665,12.5870000000,6.0000000000,35.7290593492,-78.6994448812,10.0000000000,-0.2116899804,-0.0139954883,4.0948486677,2.8848486677,0.0000000000,0.6984001137,0.0000000000,0.0000000000,34000000.0000000000,769000.0000000000,890.0000000000,0.0000000000,-1.6u,27.0000000000,22.0000000000,122.4848667740,1.0000000000,59.0000000000,-59.0000000000,78.0000000000,0.0000000000,1.0000000000
2024-10-22 23:41:46.815441,30.0004830785,12.5870000000,6.0000000000,35.7290958773,-78.6994129932,10.0000000000,-0.2122416380,-0.0134769228,4.1000000000,2.8900000000,0.0000000000,0.6975895891,0.0000000000,0.0000000000,34000000.0000000000,818000.0000000000,779.0000000000,0.0000000000,-111u,27.0000000000,22.0000000000,123.4830784710,1.0000000000,59.0000000000,-59.0000000000,78.0000000000,0.0000000000,1.0000000000
2024-10-22 23:41:47.815272,30.0019625310,12.5870000000,6.0000000000,35.7291324662,-78.6993809514,10.0000000000,-0.2110443988,-0.0138317766,4.1000000000,2.8900000000,0.0000000000,0.6979584800,0.0000000000,0.0000000000,34000000.0000000000,802000.0000000000,723.0000000000,0.0000000000,-479u,27.0000000000,22.0000000000,124.4812655049,1.0000000000,60.0000000000,-60.0000000000,78.0000000000,0.0000000000,1.0000000000
2024-10-22 23:41:48.815306,30.0030000000,12.5870000000,6.0000000000,35.7291691115,-78.6993488444,10.0000000000,-0.2095603797,-0.0137641521,4.0904002689,2.8852001345,0.0000000000,0.6973177963,0.0000000000,0.0000000000,34000000.0000000000,814000.0000000000,779.0000000000,0.0000000000,-156u,27.0000000000,22.0000000000,125.4799865525,1.0000000000,60.0000000000,-60.0000000000,77.0000000000,0.0000000000,1.0000000000
2024-10-22 23:41:49.815351,30.0020425684,12.5870000000,6.0000000000,35.7292057731,-78.6993167811,10.0000000000,-0.2091571623,-0.0138171815,4.0800000000,2.8800000000,0.0000000000,0.6975980117,0.0000000000,0.0000000000,34000000.0000000000,794000.0000000000,834.0000000000,0.0000000000,132u,27.0000000000,22.0000000000,126.4787158211,1.0000000000,60.0000000000,-60.0000000000,77.0000000000,0.0000000000,1.0000000000
2024-10-22 23:41:50.815297,30.0005227516,12.5870000000,6.0000000000,35.7292422673,-78.6992848281,10.0000000000,-0.2108815417,-0.0140053927,4.0800000000,2.8800000000,0.0000000000,0.6977574710,0.0000000000,0.0000000000,34000000.0000000000,790000.0000000000,834.0000000000,0.0000000000,-154u,27.0000000000,22.0000000000,127.4772484219,1.0000000000,60.0000000000,-60.0000000000,77.0000000000,0.0000000000,1.0000000000
2024-10-22 23:41:51.815376,30.0009517531,12.5870000000,6.0000000000,35.7292786743,-78.6992529671,10.0000000000,-0.2131421398,-0.0141104098,4.0895175310,2.8847587655,0.0000000000,0.6978806654,0.0000000000,0.0000000000,34000000.0000000000,794000.0000000000,834.0000000000,0.0000000000,-331u,27.0000000000,22.0000000000,128.4758765516,1.0000000000,61.0000000000,-61.0000000000,77.0000000000,0.0000000000,1.0000000000
2024-10-22 23:41:52.815410,30.0024743178,12.5870000000,6.0000000000,35.7293151549,-78.6992210270,10.0000000000,-0.2125350898,-0.0143159517,4.1000000000,2.8947431780,0.0000000000,0.6980628195,0.0000000000,0.0000000000,34000000.0000000000,812000.0000000000,834.0000000000,0.0000000000,-359u,27.0000000000,22.0000000000,129.4743178031,1.0000000000,61.0000000000,-61.0000000000,77.0000000000,0.0000000000,1.0000000000
2024-10-22 23:41:53.815402,30.0025272715,12.5870000000,6.0000000000,35.7293518491,-78.6991888781,10.0000000000,-0.2099809959,-0.0140995518,4.1000000000,2.8952727148,0.0000000000,0.6972772802,0.0000000000,0.0000000000,34000000.0000000000,791000.0000000000,779.0000000000,0.0000000000,-599u,27.0000000000,22.0000000000,130.4727285186,1.0000000000,61.0000000000,-61.0000000000,76.0000000000,0.0000000000,1.0000000000
2024-10-22 23:41:54.815344,30.0010580284,12.5870000000,6.0000000000,35.7293885323,-78.6991567343,10.0000000000,-0.2082305701,-0.0140820025,4.0905802844,2.8852901422,0.0000000000,0.6981759424,0.0000000000,0.0000000000,34000000.0000000000,780000.0000000000,779.0000000000,0.0000000000,-277u,27.0000000000,22.0000000000,131.4709857812,1.0000000000,61.0000000000,-61.0000000000,76.0000000000,0.0000000000,1.0000000000
2024-10-22 23:41:55.815323,30.0000000000,12.5870000000,6.0000000000,35.7294251278,-78.6991247777,10.0000000000,-0.2086800239,-0.0140260431,4.0800000000,2.8800000000,0.0000000000,0.6989964937,0.0000000000,0.0000000000,34000000.0000000000,796000.0000000000,834.0000000000,0.0000000000,57u,27.0000000000,22.0000000000,132.4692540316,1.0000000000,61.0000000000,-61.0000000000,76.0000000000,0.0000000000,1.0000000000
2024-10-22 23:41:56.815298,30.0004679400,12.5870000000,6.0000000000,35.7294615798,-78.6990929259,10.0000000000,-0.2114552675,-0.0141567144,4.0846794005,2.8846794005,0.0000000000,0.6982107257,0.0000000000,0.0000000000,34000000.0000000000,801000.0000000000,779.0000000000,0.0000000000,-247u,27.0000000000,22.0000000000,133.4679400491,1.0000000000,62.0000000000,-62.0000000000,76.0000000000,0.0000000000,1.0000000000
2024-10-22 23:41:57.815373,30.0019323730,12.5870000000,6.0000000000,35.7294980158,-78.6990609820,10.0000000000,-0.2120723548,-0.0143656551,4.0946618648,2.8900000000,0.0000000000,0.6981304797,0.0000000000,0.0000000000,34000000.0000000000,813000.0000000000,834.0000000000,0.0000000000,-533u,27.0000000000,22.0000000000,134.4661864837,1.0000000000,62.0000000000,-62.0000000000,76.0000000000,0.0000000000,1.0000000000
2024-10-22 23:41:58.815312,30.0025359577,12.5870000000,6.0000000000,35.7295345768,-78.6990289578,10.0000000000,-0.2105899467,-0.0143198047,4.1000000000,2.8900000000,0.0000000000,0.6981146665,0.0000000000,0.0000000000,34000000.0000000000,794000.0000000000,834.0000000000,0.0000000000,-920u,27.0000000000,22.0000000000,135.4640422716,1.0000000000,62.0000000000,-62.0000000000,76.0000000000,0.0000000000,1.0000000000
2024-10-22 23:41:59.815377,30.0010752787,12.5870000000,6.0000000000,35.7295712224,-78.6989969045,10.0000000000,-0.2092297231,-0.0142035043,4.0907527872,2.8853763936,0.0000000000,0.6976860107,0.0000000000,0.0000000000,34000000.0000000000,818000.0000000000,834.0000000000,0.0000000000,-417u,27.0000000000,22.0000000000,136.4623606421,1.0000000000,62.0000000000,-62.0000000000,75.0000000000,0.0000000000,1.0000000000
2024-10-22 23:42:00.815365,30.0000000000,12.5870000000,6.0000000000,35.7296077714,-78.6989649030,10.0000000000,-0.2101192464,-0.0144180945,4.0846096714,2.8846096714,0.0000000000,0.6981436941,0.0000000000,0.0000000000,34000000.0000000000,810000.0000000000,1000.0000000000,0.0000000000,-103u,27.0000000000,22.0000000000,137.4609671388,1.0000000000,62.0000000000,-62.0000000000,75.0000000000,0.0000000000,1.0000000000
2024-10-22 23:42:01.815313,30.0004596051,12.5870000000,6.0000000000,35.7296442756,-78.6989329386,10.0000000000,-0.2106305672,-0.0144542854,4.0900000000,2.8900000000,0.0000000000,0.6984687670,0.0000000000,0.0000000000,34000000.0000000000,798000.0000000000,890.0000000000,0.0000000000,-571u,27.0000000000,22.0000000000,138.4596051233,1.0000000000,62.0000000000,-62.0000000000,75.0000000000,0.0000000000,1.0000000000
2024-10-22 23:42:02.815358,30.0019160278,12.5870000000,6.0000000000,35.7296807633,-78.6989009978,10.0000000000,-0.2114224436,-0.0148618590,4.0945801388,2.8900000000,0.0000000000,0.6985605881,0.0000000000,0.0000000000,34000000.0000000000,792000.0000000000,779.0000000000,0.0000000000,38u,27.0000000000,22.0000000000,139.4580138761,1.0000000000,63.0000000000,-63.0000000000,75.0000000000,0.0000000000,1.0000000000
2024-10-22 23:42:03.815307,30.0020880612,12.5870000000,6.0000000000,35.7297173341,-78.6988689634,10.0000000000,-0.2102683296,-0.0146922234,4.0954403061,2.8900000000,0.0000000000,0.6982901991,0.0000000000,0.0000000000,34000000.0000000000,806000.0000000000,834.0000000000,0.0000000000,47u,27.0000000000,22.0000000000,140.4559693880,1.0000000000,63.0000000000,-63.0000000000,75.0000000000,0.0000000000,1.0000000000
2024-10-22 23:42:04.815359,30.0005459108,12.5870000000,6.0000000000,35.7297539651,-78.6988369237,10.0000000000,-0.2094195256,-0.0145609560,4.0900000000,2.8900000000,0.0000000000,0.6983141872,0.0000000000,0.0000000000,34000000.0000000000,779000.0000000000,834.0000000000,0.0000000000,-354u,27.0000000000,22.0000000000,141.4540892446,1.0000000000,63.0000000000,-63.0000000000,75.0000000000,0.0000000000,1.0000000000
2024-10-22 23:42:05.815329,30.0000000000,12.5870000000,6.0000000000,35.7297905699,-78.6988049127,10.0000000000,-0.2095056065,-0.0148324894,4.0854727074,2.8854727074,0.0000000000,0.6986281664,0.0000000000,0.0000000000,34000000.0000000000,792000.0000000000,890.0000000000,0.0000000000,56u,27.0000000000,22.0000000000,142.4527292638,1.0000000000,63.0000000000,-63.0000000000,75.0000000000,0.0000000000,1.0000000000
2024-10-22 23:42:06.815359,30.0000000000,12.5870000000,6.0000000000,35.7298270242,-78.6987729612,10.0000000000,-0.2124632958,-0.0150004189,4.0890242687,2.8845121343,0.0000000000,0.6984782640,0.0000000000,0.0000000000,34000000.0000000000,828000.0000000000,890.0000000000,0.0000000000,-507u,27.0000000000,22.0000000000,143.4512134328,1.0000000000,63.0000000000,-63.0000000000,75.0000000000,0.0000000000,1.0000000000
2024-10-22 23:42:07.815400,30.0008984676,12.5870000000,6.0000000000,35.7298634869,-78.6987409796,10.0000000000,-0.2121515622,-0.0150192038,4.0955076619,2.8900000000,0.0000000000,0.6981382772,0.0000000000,0.0000000000,34000000.0000000000,810000.0000000000,834.0000000000,0.0000000000,-670u,27.0000000000,22.0000000000,144.4492338141,1.0000000000,63.0000000000,-63.0000000000,74.0000000000,0.0000000000,1.0000000000
