time,Altitude,BatteryVolts,GPSFix,Latitude,Longitude,NumberOfSatellites,Pitch,Roll,VelocityX,VelocityY,VelocityZ,Yaw,blerDl,blerUl,brateDl,brateUl,buff,cc,cfo,mcsDl,mcsUl,num,pci,pl,rsrp,snr,ta_us,turbo
2024-10-23 00:43:22.483565,-0.0170000000,12.5870000000,6.0000000000,35.7274823000,-78.6962747000,10.0000000000,0.0010626550,0.0012359741,-0.0100000000,0.0100000000,0.0000000000,0.0233103782,0.0000000000,0.0000000000,5100.0000000000,29000.0000000000,0.0000000000,0.0000000000,0.525,3.0000000000,22.0000000000,3.1633880277,1.0000000000,64.0000000000,-64.0000000000,70.0000000000,0.0000000000,1.0000000000
2024-10-23 00:43:23.483439,-0.0170000000,12.5870000000,6.0000000000,35.7274823000,-78.6962747000,10.0000000000,0.0010558100,0.0012339713,-0.0100000000,0.0100000000,0.0000000000,0.0233318873,0.0000000000,0.0000000000,0.0000000000,0.0000000000,0.0000000000,0.0000000000,376u,0.0000000000,0.0000000000,4.1612100172,1.0000000000,69.0000000000,-69.0000000000,69.0000000000,0.0000000000,0.0000000000
2024-10-23 00:43:24.483453,-0.0170000000,12.5870000000,6.0000000000,35.7274823000,-78.6962747000,10.0000000000,0.0010505401,0.0012320271,-0.0100000000,0.0100000000,0.0000000000,0.0233571968,0.0000000000,0.0000000000,9400000.0000000000,323000.0000000000,356.0000000000,0.0000000000,536u,26.0000000000,16.0000000000,5.1598553283,1.0000000000,69.0000000000,-69.0000000000,69.0000000000,0.0000000000,1.0000000000
2024-10-23 00:43:25.483401,-0.0170000000,12.5870000000,6.0000000000,35.7274823000,-78.6962747000,10.0000000000,0.0010517803,0.0012243348,-0.0100000000,0.0100000000,0.0000000000,0.0233906808,0.0000000000,0.0000000000,14000000.0000000000,369000.0000000000,57.0000000000,0.0000000000,771u,26.0000000000,15.0000000000,6.1583907985,1.0000000000,69.0000000000,-69.0000000000,69.0000000000,0.0000000000,1.0000000000
2024-10-23 00:43:26.483559,-0.0140283523,12.5870000000,6.0000000000,35.7274823000,-78.6962747000,10.0000000000,0.0010548323,0.0012244956,-0.0100000000,0.0100000000,0.0000000000,0.0234219312,0.0000000000,0.0000000000,14000000.0000000000,371000.0000000000,168.0000000000,0.0000000000,665u,26.0000000000,14.0000000000,7.1564025110,1.0000000000,69.0000000000,-69.0000000000,69.0000000000,0.0000000000,1.0000000000
2024-10-23 00:43:27.483446,0.0020000000,12.5870000000,6.0000000000,35.7274823000,-78.6962747000,10.0000000000,0.0010771674,0.0012328235,-0.0084573749,0.0084573749,0.0000000000,0.0234261423,0.0000000000,0.0000000000,14000000.0000000000,359000.0000000000,0.0000000000,0.0000000000,488u,26.0000000000,16.0000000000,8.1542625135,1.0000000000,69.0000000000,-69.0000000000,69.0000000000,0.0000000000,1.0000000000
2024-10-23 00:43:28.483377,0.0020000000,12.5870000000,6.0000000000,35.7274823000,-78.6962747000,10.0000000000,0.0011934821,0.0013454838,0.0000000000,0.0000000000,0.0000000000,0.0234518333,0.0000000000,0.0000000000,14000000.0000000000,365000.0000000000,218.0000000000,0.0000000000,624u,26.0000000000,16.0000000000,9.1516660922,1.0000000000,69.0000000000,-69.0000000000,69.0000000000,0.0000000000,1.0000000000
2024-10-23 00:43:29.483464,0.0020000000,12.5870000000,6.0000000000,35.7274823000,-78.6962747000,10.0000000000,0.0014628224,0.0016143267,0.0000000000,0.0000000000,0.0000000000,0.0234721793,0.0000000000,0.0000000000,14000000.0000000000,380000.0000000000,380.0000000000,0.0000000000,462u,26.0000000000,15.0000000000,10.1503610542,1.0000000000,69.0000000000,-69.0000000000,69.0000000000,0.0000000000,1.0000000000
2024-10-23 00:43:30.483492,0.0020000000,12.5870000000,6.0000000000,35.7274823000,-78.6962747000,10.0000000000,0.0017709669,0.0019208057,0.0000000000,0.0000000000,0.0000000000,0.0235198227,0.0000000000,0.0000000000,14000000.0000000000,395000.0000000000,57.0000000000,0.0000000000,731u,26.0000000000,15.0000000000,11.1477679526,1.0000000000,69.0000000000,-69.0000000000,69.0000000000,0.0000000000,1.0000000000
2024-10-23 00:43:31.483464,0.0020000000,12.5870000000,6.0000000000,35.7274823000,-78.6962747000,10.0000000000,0.0020841604,0.0022362229,0.0000000000,0.0000000000,0.0000000000,0.0235811903,0.0000000000,0.0000000000,14000000.0000000000,364000.0000000000,380.0000000000,0.0000000000,628u,26.0000000000,16.0000000000,12.1452769405,1.0000000000,69.0000000000,-69.0000000000,69.0000000000,0.0000000000,1.0000000000
2024-10-23 00:43:32.483488,0.0174670672,12.5870000000,6.0000000000,35.7274823000,-78.6962747000,10.0000000000,0.0024052807,0.0025637659,-0.0014321359,0.0014321359,-0.0501247549,0.0236516657,0.0000000000,0.0000000000,14000000.0000000000,375000.0000000000,168.0000000000,0.0000000000,652u,26.0000000000,15.0000000000,13.1432135854,1.0000000000,69.0000000000,-69.0000000000,69.0000000000,0.0000000000,1.0000000000
2024-10-23 00:43:33.483675,0.2749669963,12.5870000000,6.0000000000,35.7274823142,-78.6962747142,10.0000000000,0.0025857571,0.0027761055,-0.0085839743,0.0085839743,-0.5156750091,0.0236818649,0.0000000000,0.0000000000,14000000.0000000000,370000.0000000000,380.0000000000,0.0000000000,916u,26.0000000000,15.0000000000,14.1416025719,1.0000000000,69.0000000000,-69.0000000000,69.0000000000,0.0000000000,1.0000000000
2024-10-23 00:43:34.483478,1.5651672926,12.5870000000,6.0000000000,35.7274824140,-78.6962748140,10.0000000000,0.0023801674,0.0027369167,0.0000000000,0.0000000000,-1.6512595068,0.0207217121,0.0000000000,0.0000000000,14000000.0000000000,383000.0000000000,57.0000000000,0.0000000000,880u,26.0000000000,15.0000000000,15.1396377732,1.0000000000,69.0000000000,-69.0000000000,69.0000000000,0.0000000000,1.0000000000
2024-10-23 00:43:35.483559,3.7083008641,12.5870000000,6.0000000000,35.7274825000,-78.6962749138,10.0000000000,0.0039852413,0.0041549663,-0.0013830318,0.0027660636,-2.4586169682,0.0045687984,0.0000000000,0.0000000000,14000000.0000000000,359000.0000000000,216.0000000000,0.0000000000,632u,26.0000000000,15.0000000000,16.1383031779,1.0000000000,69.0000000000,-69.0000000000,69.0000000000,0.0000000000,1.0000000000
2024-10-23 00:43:36.483540,6.2629739597,12.5870000000,6.0000000000,35.7274825000,-78.6962750000,10.0000000000,0.0037496999,0.0042424449,-0.0113710252,0.0200000000,-2.4445158993,0.0048099975,0.0000000000,0.0000000000,14000000.0000000000,379000.0000000000,113.0000000000,0.0000000000,-16u,26.0000000000,15.0000000000,17.1371025170,1.0000000000,69.0000000000,-69.0000000000,69.0000000000,0.0000000000,1.0000000000
2024-10-23 00:43:37.483333,8.7414889077,12.5870000000,6.0000000000,35.7274825134,-78.6962750000,10.0000000000,0.0044898526,0.0042446604,-0.0200000000,0.0200000000,-2.4140269145,0.0045088981,0.0000000000,0.0000000000,14000000.0000000000,391000.0000000000,378.0000000000,0.0000000000,-290u,26.0000000000,15.0000000000,18.1342304835,1.0000000000,69.0000000000,-69.0000000000,69.0000000000,0.0000000000,1.0000000000
2024-10-23 00:43:38.483321,11.2140773391,12.5870000000,6.0000000000,35.7274825869,-78.6962749869,10.0000000000,0.0034631370,0.0036007407,-0.0186850608,0.0186850608,-2.4413149392,0.0047882874,0.0000000000,0.0000000000,14000000.0000000000,410000.0000000000,215.0000000000,0.0000000000,-173u,26.0000000000,15.0000000000,19.1314939235,1.0000000000,69.0000000000,-69.0000000000,69.0000000000,0.0000000000,1.0000000000
2024-10-23 00:43:39.483495,13.7069598948,12.5870000000,6.0000000000,35.7274825000,-78.6962748870,10.0000000000,0.0022736728,0.0025287071,-0.0100000000,0.0100000000,-2.4487008374,0.0043337802,0.0000000000,0.0000000000,14000000.0000000000,372000.0000000000,113.0000000000,0.0000000000,-311u,26.0000000000,15.0000000000,20.1299162594,1.0000000000,69.0000000000,-69.0000000000,69.0000000000,0.0000000000,1.0000000000
2024-10-23 00:43:40.483550,16.2079160454,12.5870000000,6.0000000000,35.7274825000,-78.6962748000,10.0000000000,0.0026650739,0.0025641947,-0.0087273177,0.0087273177,-2.4400000000,0.0049102605,0.0000000000,0.0000000000,14000000.0000000000,383000.0000000000,223.0000000000,0.0000000000,145u,26.0000000000,15.0000000000,21.1272682328,1.0000000000,69.0000000000,-69.0000000000,69.0000000000,0.0000000000,1.0000000000
2024-10-23 00:43:41.483553,18.6996004593,12.5870000000,6.0000000000,35.7274825000,-78.6962748000,10.0000000000,0.0032474080,0.0028880511,-0.0012478993,0.0000000000,-2.4400000000,0.0045208692,0.0000000000,0.0000000000,14000000.0000000000,379000.0000000000,192.0000000000,0.0000000000,389u,26.0000000000,15.0000000000,22.1247899316,1.0000000000,69.0000000000,-69.0000000000,69.0000000000,0.0000000000,1.0000000000
2024-10-23 00:43:42.483512,21.1898117798,12.5870000000,6.0000000000,35.7274825000,-78.6962748122,10.0000000000,0.0033673724,0.0037318144,-0.0100000000,0.0012231612,-2.4412231612,0.0045814283,0.0000000000,0.0000000000,14000000.0000000000,373000.0000000000,220.0000000000,0.0000000000,759u,26.0000000000,15.0000000000,23.1223161235,1.0000000000,69.0000000000,-69.0000000000,69.0000000000,0.0000000000,1.0000000000
2024-10-23 00:43:43.483530,23.6690769681,12.5870000000,6.0000000000,35.7274825000,-78.6962749000,10.0000000000,0.0034518067,0.0051837409,-0.0100000000,0.0112129442,-2.4233152272,0.0040777723,0.0000000000,0.0000000000,14000000.0000000000,399000.0000000000,260.0000000000,0.0000000000,649u,26.0000000000,15.0000000000,24.1212944220,1.0000000000,69.0000000000,-69.0000000000,69.0000000000,0.0000000000,1.0000000000
2024-10-23 00:43:44.483611,26.0159319843,12.5870000000,6.0000000000,35.7274825000,-78.6962749120,10.0000000000,0.0040866229,0.0045203519,-0.0111984016,0.0200000000,-2.1509054958,0.0046932533,0.0000000000,0.0000000000,14000000.0000000000,358000.0000000000,267.0000000000,0.0000000000,565u,26.0000000000,16.0000000000,25.1198401579,1.0000000000,69.0000000000,-69.0000000000,69.0000000000,0.0000000000,1.0000000000
2024-10-23 00:43:45.483473,27.8690070883,12.5870000000,6.0000000000,35.7274825000,-78.6962750000,10.0000000000,0.0040985785,0.0042305440,-0.0200000000,0.0200000000,-1.5083821238,0.0046451569,0.0000000000,0.0000000000,14000000.0000000000,382000.0000000000,0.0000000000,0.0000000000,128u,26.0000000000,15.0000000000,26.1184959157,1.0000000000,69.0000000000,-69.0000000000,69.0000000000,0.0000000000,1.0000000000
2024-10-23 00:43:46.483442,29.1286252526,12.5870000000,6.0000000000,35.7274825117,-78.6962750000,10.0000000000,0.0042449125,0.0039767758,-0.0200000000,0.0200000000,-0.9870513532,0.0046029912,0.0000000000,0.0000000000,14000000.0000000000,379000.0000000000,113.0000000000,0.0000000000,-255u,26.0000000000,15.0000000000,27.1165715681,1.0000000000,69.0000000000,-69.0000000000,69.0000000000,0.0000000000,1.0000000000
2024-10-23 00:43:47.483447,29.8438751330,12.5870000000,6.0000000000,35.7274826000,-78.6962750000,10.0000000000,0.0044173252,0.0038017862,-0.0200000000,0.0200000000,-0.4480627923,0.0048486171,0.0000000000,0.0000000000,14000000.0000000000,366000.0000000000,0.0000000000,0.0000000000,-223u,26.0000000000,15.0000000000,28.1146985328,1.0000000000,69.0000000000,-69.0000000000,69.0000000000,0.0000000000,1.0000000000
2024-10-23 00:43:48.483526,29.9991070909,12.5870000000,6.0000000000,35.7274826000,-78.6962750000,10.0000000000,0.0036439635,0.0036415543,-0.0200000000,0.0200000000,0.0243337413,0.0047735486,0.0000000000,0.0000000000,14000000.0000000000,359000.0000000000,0.0000000000,0.0000000000,-186u,26.0000000000,15.0000000000,29.1133251743,1.0000000000,69.0000000000,-69.0000000000,69.0000000000,0.0000000000,1.0000000000
2024-10-23 00:43:49.483504,29.9527769596,12.5870000000,6.0000000000,35.7274825888,-78.6962750000,10.0000000000,0.0031383385,0.0036259101,-0.0200000000,0.0200000000,-0.0222304037,0.0044879955,0.0000000000,0.0000000000,14000000.0000000000,360000.0000000000,213.0000000000,0.0000000000,-147u,26.0000000000,16.0000000000,30.1115201873,1.0000000000,69.0000000000,-69.0000000000,69.0000000000,0.0000000000,1.0000000000
2024-10-23 00:43:50.483440,29.9513282511,12.5870000000,6.0000000000,35.7274825000,-78.6962750000,10.0000000000,0.0024142368,0.0034250355,-0.0189058298,0.0200000000,-0.0400000000,0.0039390805,0.0000000000,0.0000000000,14000000.0000000000,370000.0000000000,283.0000000000,0.0000000000,-118u,26.0000000000,15.0000000000,31.1094170225,1.0000000000,69.0000000000,-69.0000000000,69.0000000000,0.0000000000,1.0000000000
2024-10-23 00:43:51.483548,29.9548642782,12.5870000000,6.0000000000,35.7274825000,-78.6962750000,10.0000000000,0.0028686744,0.0032015797,-0.0110803477,0.0200000000,-0.0389196523,-0.0993893296,0.0000000000,0.0000000000,14000000.0000000000,375000.0000000000,218.0000000000,0.0000000000,-380u,26.0000000000,15.0000000000,32.1080347694,1.0000000000,69.0000000000,-69.0000000000,69.0000000000,0.0000000000,1.0000000000
2024-10-23 00:43:52.483490,29.9615747984,12.5870000000,6.0000000000,35.7274825319,-78.6962751276,10.0000000000,-0.0208578050,0.0175834170,0.0055120932,-0.0501582562,-0.0268109884,-1.0031154539,0.0000000000,0.0000000000,14000000.0000000000,395000.0000000000,0.0000000000,0.0000000000,174u,26.0000000000,15.0000000000,33.1063003883,1.0000000000,69.0000000000,-69.0000000000,69.0000000000,0.0000000000,1.0000000000
2024-10-23 00:43:53.483518,29.9573702542,12.5870000000,6.0000000000,35.7274834612,-78.6962783411,10.0000000000,-0.2423435231,0.1404178359,0.3134122973,-0.8866504480,-0.0020991527,-1.7502570213,0.0000000000,0.0000000000,14000000.0000000000,393000.0000000000,57.0000000000,0.0000000000,-232u,26.0000000000,15.0000000000,34.1049576374,1.0000000000,69.0000000000,-69.0000000000,69.0000000000,0.0000000000,1.0000000000
2024-10-23 00:43:54.483523,29.9524124853,12.5870000000,6.0000000000,35.7274904200,-78.6963009930,10.0000000000,-0.3349892163,0.0018675742,1.1615606584,-3.1292137777,-0.0200000000,-1.2225853661,0.0000000000,0.0000000000,14000000.0000000000,371000.0000000000,0.0000000000,0.0000000000,-665u,26.0000000000,15.0000000000,35.1031213168,1.0000000000,69.0000000000,-69.0000000000,69.0000000000,0.0000000000,1.0000000000
2024-10-23 00:43:55.483611,29.9554918567,12.5870000000,6.0000000000,35.7275034752,-78.6963443119,10.0000000000,-0.2344968202,0.0254569678,1.6252442997,-4.3664234528,-0.0200000000,-1.3052444328,0.0000000000,0.0000000000,14000000.0000000000,378000.0000000000,390.0000000000,0.0000000000,954u,26.0000000000,15.0000000000,36.1016286645,1.0000000000,69.0000000000,-69.0000000000,69.0000000000,0.0000000000,1.0000000000
2024-10-23 00:43:56.483493,29.9514974906,12.5870000000,6.0000000000,35.7275190019,-78.6963946938,10.0000000000,-0.2165622634,0.0346147988,1.7609949811,-4.6129347548,-0.0200000000,-1.4126952405,0.0000000000,0.0000000000,14000000.0000000000,351000.0000000000,168.0000000000,0.0000000000,-199u,26.0000000000,15.0000000000,37.0994981139,1.0000000000,69.0000000000,-69.0000000000,69.0000000000,0.0000000000,1.0000000000
2024-10-23 00:43:57.483467,29.9567817398,12.5870000000,6.0000000000,35.7275350928,-78.6964468986,10.0000000000,-0.2197314123,0.0074473704,1.7709771748,-4.7329315243,-0.0190228252,-1.2805163877,0.0000000000,0.0000000000,14000000.0000000000,374000.0000000000,221.0000000000,0.0000000000,-226u,27.0000000000,15.0000000000,38.0977174753,1.0000000000,69.0000000000,-69.0000000000,69.0000000000,0.0000000000,1.0000000000
2024-10-23 00:43:58.483491,29.9646712015,12.5870000000,6.0000000000,35.7275513438,-78.6964999628,10.0000000000,-0.2078143132,0.0241582060,1.7780822815,-4.7571234223,-0.0090411408,-1.3697230125,0.0000000000,0.0000000000,14000000.0000000000,381000.0000000000,269.0000000000,0.0000000000,-881u,26.0000000000,15.0000000000,39.0958859237,1.0000000000,69.0000000000,-69.0000000000,69.0000000000,0.0000000000,1.0000000000
2024-10-23 00:43:59.483556,29.9713791397,12.5870000000,6.0000000000,35.7275674071,-78.6965526857,10.0000000000,-0.2079941599,0.0168707630,1.7590521508,-4.7281043015,0.0000000000,-1.3347289591,0.0000000000,0.0000000000,14000000.0000000000,353000.0000000000,57.0000000000,0.0000000000,702u,26.0000000000,15.0000000000,40.0947849240,1.0000000000,69.0000000000,-69.0000000000,69.0000000000,0.0000000000,1.0000000000
2024-10-23 00:44:00.483546,29.9752791824,12.5870000000,6.0000000000,35.7275832611,-78.6966051299,10.0000000000,-0.2054252085,0.0185657020,1.7509306081,-4.7081387838,0.0000000000,-1.3316653013,0.0000000000,0.0000000000,14000000.0000000000,365000.0000000000,113.0000000000,0.0000000000,0.0015,26.0000000000,15.0000000000,41.0930608090,1.0000000000,69.0000000000,-69.0000000000,69.0000000000,0.0000000000,1.0000000000
2024-10-23 00:44:01.483499,29.9782744840,12.5870000000,6.0000000000,35.7275989548,-78.6966569760,10.0000000000,-0.2082972896,0.0224277588,1.7600000000,-4.6900000000,0.0000000000,-1.3500852125,0.0000000000,0.0000000000,14000000.0000000000,393000.0000000000,267.0000000000,0.0000000000,-294u,26.0000000000,15.0000000000,42.0914946656,1.0000000000,69.0000000000,-69.0000000000,69.0000000000,0.0000000000,1.0000000000
2024-10-23 00:44:02.483421,29.9810893457,12.5870000000,6.0000000000,35.7276148117,-78.6967090192,10.0000000000,-0.2035645738,0.0189052798,1.7600000000,-4.6882130867,0.0000000000,-1.3328088910,0.0000000000,0.0000000000,14000000.0000000000,375000.0000000000,0.0000000000,0.0000000000,-525u,26.0000000000,15.0000000000,43.0893456628,1.0000000000,70.0000000000,-70.0000000000,68.0000000000,0.0000000000,1.0000000000
2024-10-23 00:44:03.483492,29.9821749321,12.5870000000,6.0000000000,35.7276305820,-78.6967606482,10.0000000000,-0.2083170610,0.0220007760,1.7608746607,-4.6700000000,0.0000000000,-1.3426723739,0.0000000000,0.0000000000,14000000.0000000000,366000.0000000000,259.0000000000,0.0000000000,-176u,26.0000000000,15.0000000000,44.0874660664,1.0000000000,70.0000000000,-70.0000000000,68.0000000000,0.0000000000,1.0000000000
2024-10-23 00:44:04.483532,29.9839147205,12.5870000000,6.0000000000,35.7276463474,-78.6968125175,10.0000000000,-0.2043040899,0.0208696080,1.7700000000,-4.6691472047,0.0000000000,-1.3403569786,0.0000000000,0.0000000000,14000000.0000000000,371000.0000000000,283.0000000000,0.0000000000,-0.0013000000000000002,27.0000000000,15.0000000000,45.0852795281,1.0000000000,70.0000000000,-70.0000000000,68.0000000000,0.0000000000,1.0000000000
2024-10-23 00:44:05.483506,29.9830830674,12.5870000000,6.0000000000,35.7276621125,-78.6968642029,10.0000000000,-0.2068207256,0.0208255204,1.7700000000,-4.6600000000,0.0000000000,-1.3383043269,0.0000000000,0.0000000000,14000000.0000000000,383000.0000000000,301.0000000000,0.0000000000,-19u,26.0000000000,15.0000000000,46.0830674335,1.0000000000,70.0000000000,-70.0000000000,68.0000000000,0.0000000000,1.0000000000
2024-10-23 00:44:06.483623,29.9841607915,12.5870000000,6.0000000000,35.7276778703,-78.6969158484,10.0000000000,-0.2064742079,0.0216230934,1.7700000000,-4.6600000000,0.0008039575,-1.3413106375,0.0000000000,0.0000000000,14000000.0000000000,385000.0000000000,269.0000000000,0.0000000000,809u,27.0000000000,15.0000000000,47.0803957525,1.0000000000,70.0000000000,-70.0000000000,68.0000000000,0.0000000000,1.0000000000
2024-10-23 00:44:07.483446,29.9858431857,12.5870000000,6.0000000000,35.7276939603,-78.6969683965,10.0000000000,-0.2096628188,0.0215885211,1.7700000000,-4.6607840714,0.0100000000,-1.3403261791,0.0000000000,0.0000000000,14000000.0000000000,380000.0000000000,434.0000000000,0.0000000000,-698u,27.0000000000,15.0000000000,48.0784071380,1.0000000000,70.0000000000,-70.0000000000,68.0000000000,0.0000000000,1.0000000000
2024-10-23 00:44:08.483424,29.9839236551,12.5870000000,6.0000000000,35.7277135062,-78.6970322623,10.0000000000,-0.2033295117,0.0215707605,1.7692365508,-4.6684731016,0.0092365508,-1.3409238015,0.0000000000,0.0000000000,14000000.0000000000,383000.0000000000,57.0000000000,0.0000000000,-370u,26.0000000000,15.0000000000,49.0763449206,1.0000000000,70.0000000000,-70.0000000000,68.0000000000,0.0000000000,1.0000000000
2024-10-23 00:44:09.483443,29.9829253181,12.5870000000,6.0000000000,35.7277292800,-78.6970840685,10.0000000000,-0.2054279566,0.0218670776,1.7600000000,-4.6500000000,0.0000000000,-1.3408868623,0.0000000000,0.0000000000,14000000.0000000000,358000.0000000000,113.0000000000,0.0000000000,161u,26.0000000000,15.0000000000,50.0746818556,1.0000000000,70.0000000000,-70.0000000000,68.0000000000,0.0000000000,1.0000000000
2024-10-23 00:44:10.483458,29.9820726305,12.5870000000,6.0000000000,35.7277450476,-78.6971357550,10.0000000000,-0.2043355932,0.0219110073,1.7600000000,-4.6492736949,0.0000000000,-1.3394517492,0.0000000000,0.0000000000,14000000.0000000000,365000.0000000000,168.0000000000,0.0000000000,-0.0015,26.0000000000,14.0000000000,51.0726305078,1.0000000000,70.0000000000,-70.0000000000,68.0000000000,0.0000000000,1.0000000000
2024-10-23 00:44:11.483432,29.9830000000,12.5870000000,6.0000000000,35.7277608258,-78.6971873678,10.0000000000,-0.2067175453,0.0214602229,1.7607080726,-4.6407080726,0.0000000000,-1.3394417798,0.0000000000,0.0000000000,14000000.0000000000,391000.0000000000,224.0000000000,0.0000000000,-837u,26.0000000000,15.0000000000,52.0708072601,1.0000000000,70.0000000000,-70.0000000000,68.0000000000,0.0000000000,1.0000000000
2024-10-23 00:44:12.483401,29.9829308278,12.5870000000,6.0000000000,35.7277766860,-78.6972390693,10.0000000000,-0.2047582922,0.0219440136,1.7693082783,-4.6500000000,0.0000000000,-1.3410077931,0.0000000000,0.0000000000,14000000.0000000000,400000.0000000000,267.0000000000,0.0000000000,-552u,26.0000000000,15.0000000000,53.0691721686,1.0000000000,70.0000000000,-70.0000000000,68.0000000000,0.0000000000,1.0000000000
2024-10-23 00:44:13.483453,29.9819319142,12.5870000000,6.0000000000,35.7277923826,-78.6972906337,10.0000000000,-0.2090230090,0.0224658381,1.7606808575,-4.6513617151,0.0000000000,-1.3408516260,0.0000000000,0.0000000000,14000000.0000000000,379000.0000000000,323.0000000000,0.0000000000,-0.0016,26.0000000000,15.0000000000,54.0680857540,1.0000000000,70.0000000000,-70.0000000000,68.0000000000,0.0000000000,1.0000000000
2024-10-23 00:44:14.483440,29.9810000000,12.5870000000,6.0000000000,35.7278082363,-78.6973423974,10.0000000000,-0.2056282060,0.0221668460,1.7700000000,-4.6686882473,0.0000000000,-1.3402353827,0.0000000000,0.0000000000,14000000.0000000000,381000.0000000000,254.0000000000,0.0000000000,-663u,26.0000000000,15.0000000000,55.0655876328,1.0000000000,71.0000000000,-71.0000000000,68.0000000000,0.0000000000,1.0000000000
2024-10-23 00:44:15.483433,29.9810000000,12.5870000000,6.0000000000,35.7278240079,-78.6973941043,10.0000000000,-0.2071130343,0.0224317930,1.7700000000,-4.6506379039,0.0000000000,-1.3414017638,0.0000000000,0.0000000000,14000000.0000000000,359000.0000000000,218.0000000000,0.0000000000,90u,26.0000000000,15.0000000000,56.0637903887,1.0000000000,71.0000000000,-71.0000000000,67.0000000000,0.0000000000,1.0000000000
2024-10-23 00:44:16.483477,29.9811237487,12.5870000000,6.0000000000,35.7278397776,-78.6974457989,10.0000000000,-0.2065194048,0.0224442515,1.7700000000,-4.6593812564,0.0000000000,-1.3402572656,0.0000000000,0.0000000000,14000000.0000000000,383000.0000000000,218.0000000000,0.0000000000,-241u,26.0000000000,15.0000000000,57.0618743638,1.0000000000,71.0000000000,-71.0000000000,67.0000000000,0.0000000000,1.0000000000
2024-10-23 00:44:17.483560,29.9830609420,12.5870000000,6.0000000000,35.7278555629,-78.6974974568,10.0000000000,-0.2081939931,0.0226962691,1.7700000000,-4.6506094196,0.0000000000,-1.3408171588,0.0000000000,0.0000000000,14000000.0000000000,386000.0000000000,57.0000000000,0.0000000000,-0.0011,26.0000000000,15.0000000000,58.0609419627,1.0000000000,71.0000000000,-71.0000000000,67.0000000000,0.0000000000,1.0000000000
2024-10-23 00:44:18.483468,29.9839409438,12.5870000000,6.0000000000,35.7278713390,-78.6975491709,10.0000000000,-0.2065978532,0.0225310366,1.7694094377,-4.6588188754,0.0000000000,-1.3403883036,0.0000000000,0.0000000000,14000000.0000000000,382000.0000000000,57.0000000000,0.0000000000,-48u,26.0000000000,15.0000000000,59.0590562319,1.0000000000,71.0000000000,-71.0000000000,67.0000000000,0.0000000000,1.0000000000
2024-10-23 00:44:19.483399,29.9829427019,12.5870000000,6.0000000000,35.7278872053,-78.6976010566,10.0000000000,-0.2057406056,0.0226969023,1.7600000000,-4.6405729808,0.0000000000,-1.3410437059,0.0000000000,0.0000000000,14000000.0000000000,370000.0000000000,267.0000000000,0.0000000000,0.0013000000000000002,26.0000000000,15.0000000000,60.0572980808,1.0000000000,71.0000000000,-71.0000000000,67.0000000000,0.0000000000,1.0000000000
2024-10-23 00:44:20.483431,29.9820000000,12.5870000000,6.0000000000,35.7279029785,-78.6976525801,10.0000000000,-0.2069913770,0.0226495473,1.7600000000,-4.6494440013,0.0000000000,-1.3398743314,0.0000000000,0.0000000000,14000000.0000000000,379000.0000000000,0.0000000000,0.0000000000,160u,26.0000000000,16.0000000000,61.0555998745,1.0000000000,71.0000000000,-71.0000000000,67.0000000000,0.0000000000,1.0000000000
2024-10-23 00:44:21.483421,29.9821080006,12.5870000000,6.0000000000,35.7279187532,-78.6977042864,10.0000000000,-0.2064132908,0.0224696081,1.7605400032,-4.6410800064,0.0000000000,-1.3411493790,0.0000000000,0.0000000000,14000000.0000000000,383000.0000000000,113.0000000000,0.0000000000,-647u,26.0000000000,15.0000000000,62.0540003182,1.0000000000,71.0000000000,-71.0000000000,67.0000000000,0.0000000000,1.0000000000
2024-10-23 00:44:22.483461,29.9841033814,12.5870000000,6.0000000000,35.7279345219,-78.6977557931,10.0000000000,-0.2087287020,0.0228695951,1.7694830930,-4.6594830930,0.0000000000,-1.3396909791,0.0000000000,0.0000000000,14000000.0000000000,375000.0000000000,57.0000000000,0.0000000000,204u,26.0000000000,15.0000000000,63.0516907046,1.0000000000,71.0000000000,-71.0000000000,67.0000000000,0.0000000000,1.0000000000
2024-10-23 00:44:23.483417,29.9859004334,12.5870000000,6.0000000000,35.7279503816,-78.6978077688,10.0000000000,-0.2049436182,0.0221701013,1.7604978330,-4.6500000000,0.0000000000,-1.3401685522,0.0000000000,0.0000000000,14000000.0000000000,362000.0000000000,0.0000000000,0.0000000000,0.0026000000000000003,26.0000000000,16.0000000000,64.0497833019,1.0000000000,71.0000000000,-71.0000000000,67.0000000000,0.0000000000,1.0000000000
2024-10-23 00:44:24.483391,29.9839518034,12.5870000000,6.0000000000,35.7279660663,-78.6978593014,10.0000000000,-0.2081240092,0.0227506267,1.7695180340,-4.6500000000,0.0000000000,-1.3403303364,0.0000000000,0.0000000000,14000000.0000000000,384000.0000000000,385.0000000000,0.0000000000,61u,26.0000000000,15.0000000000,65.0481965959,1.0000000000,71.0000000000,-71.0000000000,67.0000000000,0.0000000000,1.0000000000
2024-10-23 00:44:25.483422,29.9830466442,12.5870000000,6.0000000000,35.7279819370,-78.6979111162,10.0000000000,-0.2054260961,0.0225976424,1.7600000000,-4.6500000000,0.0000000000,-1.3402982806,0.0000000000,0.0000000000,14000000.0000000000,382000.0000000000,168.0000000000,0.0000000000,-454u,26.0000000000,15.0000000000,66.0466441989,1.0000000000,71.0000000000,-71.0000000000,67.0000000000,0.0000000000,1.0000000000
2024-10-23 00:44:26.483504,29.9840000000,12.5870000000,6.0000000000,35.7279977093,-78.6979628152,10.0000000000,-0.2062566503,0.0225115340,1.7600000000,-4.6495539044,0.0000000000,-1.3401715236,0.0000000000,0.0000000000,14000000.0000000000,378000.0000000000,214.0000000000,0.0000000000,0.0019,26.0000000000,16.0000000000,67.0446095639,1.0000000000,71.0000000000,-71.0000000000,67.0000000000,0.0000000000,1.0000000000
2024-10-23 00:44:27.483437,29.9840415030,12.5870000000,6.0000000000,35.7280135516,-78.6980145291,10.0000000000,-0.2046045503,0.0219797063,1.7604150300,-4.6408300600,0.0000000000,-1.3409192354,0.0000000000,0.0000000000,14000000.0000000000,387000.0000000000,214.0000000000,0.0000000000,758u,26.0000000000,15.0000000000,68.0415030010,1.0000000000,71.0000000000,-71.0000000000,67.0000000000,0.0000000000,1.0000000000
2024-10-23 00:44:28.483574,29.9850797863,12.5870000000,6.0000000000,35.7280292343,-78.6980657744,10.0000000000,-0.2109385891,0.0229983661,1.7700000000,-4.6600000000,0.0000000000,-1.3400563517,0.0000000000,0.0000000000,14000000.0000000000,393000.0000000000,380.0000000000,0.0000000000,837u,26.0000000000,15.0000000000,69.0398931368,1.0000000000,72.0000000000,-72.0000000000,67.0000000000,0.0000000000,1.0000000000
2024-10-23 00:44:29.483387,29.9870000000,12.5870000000,6.0000000000,35.7280451118,-78.6981177096,10.0000000000,-0.2052883644,0.0224088597,1.7700000000,-4.6596128006,0.0000000000,-1.3415490734,0.0000000000,0.0000000000,14000000.0000000000,386000.0000000000,0.0000000000,0.0000000000,-661u,26.0000000000,15.0000000000,70.0387199413,1.0000000000,72.0000000000,-72.0000000000,67.0000000000,0.0000000000,1.0000000000
2024-10-23 00:44:30.483408,29.9869626435,12.5870000000,6.0000000000,35.7280608902,-78.6981695388,10.0000000000,-0.2070800924,0.0229847729,1.7696264352,-4.6500000000,0.0000000000,-1.3411147324,0.0000000000,0.0000000000,14000000.0000000000,383000.0000000000,57.0000000000,0.0000000000,-0.0037,26.0000000000,15.0000000000,71.0373564797,1.0000000000,72.0000000000,-72.0000000000,66.0000000000,0.0000000000,1.0000000000
2024-10-23 00:44:31.483433,29.9860000000,12.5870000000,6.0000000000,35.7280766623,-78.6982213398,10.0000000000,-0.2047807045,0.0217993111,1.7600000000,-4.6496441379,0.0000000000,-1.3393994486,0.0000000000,0.0000000000,14000000.0000000000,384000.0000000000,382.0000000000,0.0000000000,-0.0028,26.0000000000,15.0000000000,72.0355862136,1.0000000000,72.0000000000,-72.0000000000,66.0000000000,0.0000000000,1.0000000000
2024-10-23 00:44:32.483420,29.9860339059,12.5870000000,6.0000000000,35.7280924391,-78.6982729597,10.0000000000,-0.2073256629,0.0226075445,1.7600000000,-4.6403390586,0.0000000000,-1.3405693100,0.0000000000,0.0000000000,14000000.0000000000,394000.0000000000,222.0000000000,0.0000000000,351u,26.0000000000,15.0000000000,73.0339058640,1.0000000000,72.0000000000,-72.0000000000,66.0000000000,0.0000000000,1.0000000000
2024-10-23 00:44:33.483396,29.9870633316,12.5870000000,6.0000000000,35.7281082972,-78.6983247308,10.0000000000,-0.2029324158,0.0217269556,1.7600000000,-4.6500000000,0.0000000000,-1.3410151190,0.0000000000,0.0000000000,14000000.0000000000,379000.0000000000,322.0000000000,0.0000000000,0.0015,26.0000000000,15.0000000000,74.0316657903,1.0000000000,72.0000000000,-72.0000000000,66.0000000000,0.0000000000,1.0000000000
2024-10-23 00:44:34.483482,29.9890000000,12.5870000000,6.0000000000,35.7281239774,-78.6983761653,10.0000000000,-0.2093964789,0.0230071018,1.7603021817,-4.6503021817,0.0000000000,-1.3400838625,0.0000000000,0.0000000000,14000000.0000000000,357000.0000000000,113.0000000000,0.0000000000,961u,27.0000000000,15.0000000000,75.0302181699,1.0000000000,72.0000000000,-72.0000000000,66.0000000000,0.0000000000,1.0000000000
2024-10-23 00:44:35.483421,29.9889717400,12.5870000000,6.0000000000,35.7281397493,-78.6984278639,10.0000000000,-0.2063905789,0.0223717728,1.7700000000,-4.6600000000,0.0000000000,-1.3408089681,0.0000000000,0.0000000000,14000000.0000000000,371000.0000000000,320.0000000000,0.0000000000,-63u,26.0000000000,15.0000000000,76.0282599737,1.0000000000,72.0000000000,-72.0000000000,66.0000000000,0.0000000000,1.0000000000
2024-10-23 00:44:36.483399,29.9880000000,12.5870000000,6.0000000000,35.7281556273,-78.6984795975,10.0000000000,-0.2071153259,0.0223744643,1.7700000000,-4.6597312570,0.0000000000,-1.3400828634,0.0000000000,0.0000000000,14000000.0000000000,365000.0000000000,491.0000000000,0.0000000000,-81u,26.0000000000,15.0000000000,77.0268742956,1.0000000000,72.0000000000,-72.0000000000,66.0000000000,0.0000000000,1.0000000000
2024-10-23 00:44:37.483416,29.9880248035,12.5870000000,6.0000000000,35.7281714894,-78.6985314799,10.0000000000,-0.2034056612,0.0221117678,1.7697519652,-4.6497519652,0.0000000000,-1.3408462313,0.0000000000,0.0000000000,14000000.0000000000,398000.0000000000,113.0000000000,0.0000000000,281u,26.0000000000,15.0000000000,78.0248034781,1.0000000000,72.0000000000,-72.0000000000,66.0000000000,0.0000000000,1.0000000000
2024-10-23 00:44:38.483374,29.9890465581,12.5870000000,6.0000000000,35.7281871678,-78.6985830059,10.0000000000,-0.2090956588,0.0226327637,1.7602327907,-4.6404655814,0.0000000000,-1.3414743244,0.0000000000,0.0000000000,14000000.0000000000,410000.0000000000,278.0000000000,0.0000000000,-0.0016,26.0000000000,14.0000000000,79.0232790710,1.0000000000,72.0000000000,-72.0000000000,66.0000000000,0.0000000000,1.0000000000
2024-10-23 00:44:39.483545,29.9910000000,12.5870000000,6.0000000000,35.7282029466,-78.6986347292,10.0000000000,-0.2061216020,0.0224405028,1.7697820087,-4.6597820087,0.0000000000,-1.3392423945,0.0000000000,0.0000000000,14000000.0000000000,352000.0000000000,224.0000000000,0.0000000000,-766u,26.0000000000,15.0000000000,80.0217991270,1.0000000000,72.0000000000,-72.0000000000,66.0000000000,0.0000000000,1.0000000000
2024-10-23 00:44:40.483458,29.9909790951,12.5870000000,6.0000000000,35.7282188303,-78.6986864829,10.0000000000,-0.2080624466,0.0217940426,1.7602090490,-4.6502090490,0.0000000000,-1.3398237370,0.0000000000,0.0000000000,14000000.0000000000,362000.0000000000,0.0000000000,0.0000000000,0.0015,27.0000000000,15.0000000000,81.0209048999,1.0000000000,72.0000000000,-72.0000000000,66.0000000000,0.0000000000,1.0000000000
2024-10-23 00:44:41.483442,29.9899813590,12.5870000000,6.0000000000,35.7282345945,-78.6987381656,10.0000000000,-0.2070252482,0.0224873009,1.7698135904,-4.6598135904,0.0000000000,-1.3406243101,0.0000000000,0.0000000000,14000000.0000000000,354000.0000000000,113.0000000000,0.0000000000,-0.0023,26.0000000000,15.0000000000,82.0186409632,1.0000000000,72.0000000000,-72.0000000000,66.0000000000,0.0000000000,1.0000000000
2024-10-23 00:44:42.483483,29.9890497969,12.5870000000,6.0000000000,35.7282503623,-78.6987898582,10.0000000000,-0.2068356586,0.0222125166,1.7601659898,-4.6501659898,0.0000000000,-1.3404107293,0.0000000000,0.0000000000,14000000.0000000000,377000.0000000000,269.0000000000,0.0000000000,-0.0036000000000000003,26.0000000000,15.0000000000,83.0165989814,1.0000000000,72.0000000000,-72.0000000000,66.0000000000,0.0000000000,1.0000000000
2024-10-23 00:44:43.483456,29.9920142925,12.5870000000,6.0000000000,35.7282661273,-78.6988414418,10.0000000000,-0.2077572327,0.0224578092,1.7698570755,-4.6597141509,0.0000000000,-1.3404679603,0.0000000000,0.0000000000,14000000.0000000000,373000.0000000000,389.0000000000,0.0000000000,-270u,26.0000000000,15.0000000000,84.0142924542,1.0000000000,73.0000000000,-73.0000000000,66.0000000000,0.0000000000,1.0000000000
2024-10-23 00:44:44.483490,29.9930000000,12.5870000000,6.0000000000,35.7282819904,-78.6988932257,10.0000000000,-0.2069134789,0.0213354502,1.7601212546,-4.6402425091,0.0000000000,-1.3404375482,0.0000000000,0.0000000000,14000000.0000000000,376000.0000000000,57.0000000000,0.0000000000,700u,26.0000000000,15.0000000000,85.0121254552,1.0000000000,73.0000000000,-73.0000000000,65.0000000000,0.0000000000,1.0000000000
2024-10-23 00:44:45.483424,29.9930000000,12.5870000000,6.0000000000,35.7282976556,-78.6989447079,10.0000000000,-0.2084904709,0.0224245040,1.7700000000,-4.6599021326,0.0000000000,-1.3404709949,0.0000000000,0.0000000000,14000000.0000000000,371000.0000000000,113.0000000000,0.0000000000,-720u,26.0000000000,15.0000000000,86.0097867419,1.0000000000,73.0000000000,-73.0000000000,65.0000000000,0.0000000000,1.0000000000
2024-10-23 00:44:46.483453,29.9929923638,12.5870000000,6.0000000000,35.7283135207,-78.6989964956,10.0000000000,-0.2062148736,0.0219145645,1.7699236378,-4.6500000000,0.0000000000,-1.3407669670,0.0000000000,0.0000000000,14000000.0000000000,382000.0000000000,269.0000000000,0.0000000000,-0.0017,26.0000000000,15.0000000000,87.0076362245,1.0000000000,73.0000000000,-73.0000000000,65.0000000000,0.0000000000,1.0000000000
2024-10-23 00:44:47.483520,29.9920056665,12.5870000000,6.0000000000,35.7283292901,-78.6990481941,10.0000000000,-0.2062198296,0.0216043859,1.7600000000,-4.6499433354,0.0000000000,-1.3404995512,0.0000000000,0.0000000000,14000000.0000000000,374000.0000000000,113.0000000000,0.0000000000,-0.0025,26.0000000000,15.0000000000,88.0056664640,1.0000000000,73.0000000000,-73.0000000000,65.0000000000,0.0000000000,1.0000000000
2024-10-23 00:44:48.483475,29.9930085921,12.5870000000,6.0000000000,35.7283451674,-78.6991000208,10.0000000000,-0.2067995151,0.0217905410,1.7600429607,-4.6400859214,0.0000000000,-1.3411272288,0.0000000000,0.0000000000,14000000.0000000000,382000.0000000000,214.0000000000,0.0000000000,-966u,26.0000000000,15.0000000000,89.0042960677,1.0000000000,73.0000000000,-73.0000000000,65.0000000000,0.0000000000,1.0000000000
2024-10-23 00:44:49.483464,29.9950000000,12.5870000000,6.0000000000,35.7283608468,-78.6991513535,10.0000000000,-0.2111444450,0.0221827662,1.7700000000,-4.6600000000,0.0000000000,-1.3399061517,0.0000000000,0.0000000000,14000000.0000000000,381000.0000000000,211.0000000000,0.0000000000,141u,26.0000000000,15.0000000000,90.0029456688,1.0000000000,73.0000000000,-73.0000000000,65.0000000000,0.0000000000,1.0000000000
2024-10-23 00:44:50.483568,29.9950000000,12.5870000000,6.0000000000,35.7283767201,-78.6992033658,10.0000000000,-0.2059251099,0.0220261205,1.7700000000,-4.6599872739,0.0000000000,-1.3418198448,0.0000000000,0.0000000000,14000000.0000000000,386000.0000000000,330.0000000000,0.0000000000,-427u,26.0000000000,15.0000000000,91.0012726124,1.0000000000,73.0000000000,-73.0000000000,65.0000000000,0.0000000000,1.0000000000
2024-10-23 00:44:51.483397,29.9950000000,12.5870000000,6.0000000000,35.7283924861,-78.6992549547,10.0000000000,-0.2072944377,0.0218368588,1.7700000000,-4.6500087711,0.0000000000,-1.3406687364,0.0000000000,0.0000000000,14000000.0000000000,423000.0000000000,269.0000000000,0.0000000000,0.0024,26.0000000000,15.0000000000,91.9991228913,1.0000000000,73.0000000000,-73.0000000000,65.0000000000,0.0000000000,1.0000000000
2024-10-23 00:44:52.483460,29.9959977384,12.5870000000,6.0000000000,35.7284083640,-78.6993067826,10.0000000000,-0.2053322741,0.0218833020,1.7600226156,-4.6500000000,0.0000000000,-1.3389728340,0.0000000000,0.0000000000,14000000.0000000000,352000.0000000000,269.0000000000,0.0000000000,0.0035,26.0000000000,15.0000000000,92.9977384449,1.0000000000,73.0000000000,-73.0000000000,65.0000000000,0.0000000000,1.0000000000
2024-10-23 00:44:53.483430,29.9960000000,12.5870000000,6.0000000000,35.7284240258,-78.6993583558,10.0000000000,-0.2079787799,0.0215088212,1.7600000000,-4.6500000000,0.0000000000,-1.3399329924,0.0000000000,0.0000000000,14000000.0000000000,364000.0000000000,358.0000000000,0.0000000000,0.0023,26.0000000000,15.0000000000,93.9952762947,1.0000000000,73.0000000000,-73.0000000000,65.0000000000,0.0000000000,1.0000000000
2024-10-23 00:44:54.483442,29.9969935879,12.5870000000,6.0000000000,35.7284398980,-78.6994101672,10.0000000000,-0.2056765485,0.0212752356,1.7600000000,-4.6400641214,0.0000000000,-1.3417761879,0.0000000000,0.0000000000,14000000.0000000000,388000.0000000000,271.0000000000,0.0000000000,0.0031000000000000003,26.0000000000,15.0000000000,94.9935878596,1.0000000000,73.0000000000,-73.0000000000,65.0000000000,0.0000000000,1.0000000000
2024-10-23 00:44:55.483485,29.9970000000,12.5870000000,6.0000000000,35.7284555703,-78.6994614753,10.0000000000,-0.2110350041,0.0216995242,1.7600000000,-4.6598347330,0.0000000000,-1.3397029329,0.0000000000,0.0000000000,14000000.0000000000,392000.0000000000,269.0000000000,0.0000000000,0.0028,26.0000000000,15.0000000000,95.9917366522,1.0000000000,73.0000000000,-73.0000000000,65.0000000000,0.0000000000,1.0000000000
2024-10-23 00:44:56.483432,29.9970000000,12.5870000000,6.0000000000,35.7284714197,-78.6995132114,10.0000000000,-0.2066638413,0.0214002082,1.7698865840,-4.6698865840,0.0000000000,-1.3413870646,0.0000000000,0.0000000000,14000000.0000000000,397000.0000000000,388.0000000000,0.0000000000,-769u,26.0000000000,15.0000000000,96.9886583969,1.0000000000,73.0000000000,-73.0000000000,65.0000000000,0.0000000000,1.0000000000
2024-10-23 00:44:57.483478,29.9970000000,12.5870000000,6.0000000000,35.7284872015,-78.6995649491,10.0000000000,-0.2080401970,0.0207509072,1.7601256616,-4.6601256616,0.0000000000,-1.3405651835,0.0000000000,0.0000000000,14000000.0000000000,368000.0000000000,113.0000000000,0.0000000000,938u,26.0000000000,15.0000000000,97.9874338428,1.0000000000,73.0000000000,-73.0000000000,65.0000000000,0.0000000000,1.0000000000
2024-10-23 00:44:58.483460,29.9979856584,12.5870000000,6.0000000000,35.7285030720,-78.6996168542,10.0000000000,-0.2032098377,0.0201558419,1.7600000000,-4.6600000000,0.0000000000,-1.3403969088,0.0000000000,0.0000000000,14000000.0000000000,371000.0000000000,57.0000000000,0.0000000000,854u,27.0000000000,15.0000000000,98.9856583681,1.0000000000,73.0000000000,-73.0000000000,65.0000000000,0.0000000000,1.0000000000
2024-10-23 00:44:59.483415,29.9980000000,12.5870000000,6.0000000000,35.7285188537,-78.6996682972,10.0000000000,-0.2103180180,0.0212851605,1.7600000000,-4.6600000000,0.0000000000,-1.3401215403,0.0000000000,0.0000000000,14000000.0000000000,389000.0000000000,168.0000000000,0.0000000000,-0.0015,26.0000000000,15.0000000000,99.9844115883,1.0000000000,73.0000000000,-73.0000000000,65.0000000000,0.0000000000,1.0000000000
2024-10-23 00:45:00.483413,29.9989829352,12.5870000000,6.0000000000,35.7285346304,-78.6997199178,10.0000000000,-0.2074995808,0.0203632850,1.7600000000,-4.6698293522,0.0000000000,-1.3404465951,0.0000000000,0.0000000000,14000000.0000000000,374000.0000000000,132.0000000000,0.0000000000,-879u,26.0000000000,15.0000000000,100.9829352243,1.0000000000,73.0000000000,-73.0000000000,65.0000000000,0.0000000000,1.0000000000
2024-10-23 00:45:01.483557,29.9990000000,12.5870000000,6.0000000000,35.7285504106,-78.6997716513,10.0000000000,-0.1584936061,0.0139642943,1.7403662862,-4.6110988587,0.0000000000,-1.3393417362,0.1100000000,0.0000000000,11000000.0000000000,358000.0000000000,269.0000000000,0.0000000000,-692u,26.0000000000,15.0000000000,101.9816856887,1.0000000000,74.0000000000,-74.0000000000,60.0000000000,0.0000000000,1.0000000000
2024-10-23 00:45:02.483434,29.9970398584,12.5870000000,6.0000000000,35.7285647150,-78.6998184673,10.0000000000,-0.0224264360,-0.0026381774,1.3871745209,-3.6985341789,0.0000000000,-1.3391170259,0.0000000000,0.0000000000,14000000.0000000000,370000.0000000000,224.0000000000,0.0000000000,-0.005200000000000001,26.0000000000,15.0000000000,102.9800707754,1.0000000000,74.0000000000,-74.0000000000,65.0000000000,0.0000000000,1.0000000000
2024-10-23 00:45:03.483438,29.9970000000,12.5870000000,6.0000000000,35.7285751721,-78.6998524592,10.0000000000,0.0853266012,-0.0142054277,0.8616165367,-2.3302468313,0.0000000000,-1.3399430446,0.0000000000,0.0000000000,14000000.0000000000,380000.0000000000,249.0000000000,0.0000000000,-631u,26.0000000000,15.0000000000,103.9780820063,1.0000000000,74.0000000000,-74.0000000000,65.0000000000,0.0000000000,1.0000000000
2024-10-23 00:45:04.483512,29.9999279416,12.5870000000,6.0000000000,35.7285803775,-78.6998693037,10.0000000000,0.1244378761,-0.0180110576,0.2448920770,-0.7189115560,0.0000000000,-1.3406667044,0.0000000000,0.0000000000,14000000.0000000000,391000.0000000000,113.0000000000,0.0000000000,0.0029,27.0000000000,15.0000000000,104.9759805210,1.0000000000,74.0000000000,-74.0000000000,65.0000000000,0.0000000000,1.0000000000
2024-10-23 00:45:05.483384,29.9990264684,12.5870000000,6.0000000000,35.7285811815,-78.6998720365,10.0000000000,0.0417417800,-0.0058965327,-0.0425888554,0.0793546685,0.0000000000,-1.3389613505,0.0000000000,0.0000000000,14000000.0000000000,384000.0000000000,207.0000000000,0.0000000000,-214u,26.0000000000,15.0000000000,105.9735316263,1.0000000000,74.0000000000,-74.0000000000,64.0000000000,0.0000000000,1.0000000000
2024-10-23 00:45:06.483399,29.9951137125,12.5870000000,6.0000000000,35.7285805199,-78.6998697682,10.0000000000,-0.0008124473,-0.0000863017,-0.0791471563,0.1874414688,0.0000000000,-1.3390449274,0.0000000000,0.0000000000,14000000.0000000000,397000.0000000000,272.0000000000,0.0000000000,-0.0037,27.0000000000,15.0000000000,106.9715718760,1.0000000000,74.0000000000,-74.0000000000,64.0000000000,0.0000000000,1.0000000000
2024-10-23 00:45:07.483395,29.9950000000,12.5870000000,6.0000000000,35.7285798212,-78.6998676636,10.0000000000,-0.0077563881,-0.0022685338,-0.0412120540,0.1027271215,0.0000000000,-0.8200256248,0.0000000000,0.0000000000,14000000.0000000000,368000.0000000000,57.0000000000,0.0000000000,-0.0026000000000000003,26.0000000000,15.0000000000,107.9696986499,1.0000000000,74.0000000000,-74.0000000000,64.0000000000,0.0000000000,1.0000000000
2024-10-23 00:45:08.483475,29.9979043068,12.5870000000,6.0000000000,35.7285794128,-78.6998666319,10.0000000000,-0.0001341330,-0.0053248039,-0.0012759096,0.0322328418,0.0000000000,0.6590940856,0.0000000000,0.0000000000,14000000.0000000000,370000.0000000000,214.0000000000,0.0000000000,-577u,26.0000000000,16.0000000000,108.9681022596,1.0000000000,74.0000000000,-74.0000000000,64.0000000000,0.0000000000,1.0000000000
2024-10-23 00:45:09.483497,29.9980000000,12.5870000000,6.0000000000,35.7285826891,-78.6998630207,10.0000000000,-0.2695394884,-0.1331840554,1.2866130568,0.9199879792,0.0000000000,1.0655982975,0.0000000000,0.0000000000,14000000.0000000000,414000.0000000000,101.0000000000,0.0000000000,572u,27.0000000000,15.0000000000,109.9673782382,1.0000000000,74.0000000000,-74.0000000000,64.0000000000,0.0000000000,1.0000000000
2024-10-23 00:45:10.483474,30.0028291452,12.5870000000,6.0000000000,35.7286025995,-78.6998456117,10.0000000000,-0.3443769759,0.0413969799,3.2326832106,2.3118189477,0.0000000000,0.5020547374,0.0000000000,0.0000000000,14000000.0000000000,387000.0000000000,224.0000000000,0.0000000000,0.002,26.0000000000,15.0000000000,110.9658290409,1.0000000000,74.0000000000,-74.0000000000,64.0000000000,0.0000000000,1.0000000000
2024-10-23 00:45:11.483424,30.0020357137,12.5870000000,6.0000000000,35.7286355072,-78.6998166500,10.0000000000,-0.2306366808,-0.0237578837,3.8882146310,2.7650002377,0.0000000000,0.7361814139,0.0000000000,0.0000000000,14000000.0000000000,412000.0000000000,251.0000000000,0.0000000000,0.0037,26.0000000000,15.0000000000,111.9642862803,1.0000000000,74.0000000000,-74.0000000000,65.0000000000,0.0000000000,1.0000000000
2024-10-23 00:45:12.483571,29.9971853122,12.5870000000,6.0000000000,35.7286718472,-78.6997850749,10.0000000000,-0.2218142396,-0.0114460983,4.0736993856,2.8859231318,0.0000000000,0.7296412361,0.0000000000,0.0000000000,14000000.0000000000,371000.0000000000,491.0000000000,0.0000000000,0.0026000000000000003,26.0000000000,15.0000000000,112.9629375622,1.0000000000,74.0000000000,-74.0000000000,65.0000000000,0.0000000000,1.0000000000
2024-10-23 00:45:13.483437,29.9979610805,12.5870000000,6.0000000000,35.7287091444,-78.6997522805,10.0000000000,-0.2175459901,-0.0024349831,4.0992216105,2.9572756367,0.0000000000,0.6477410033,0.0000000000,0.0000000000,14000000.0000000000,407000.0000000000,322.0000000000,0.0000000000,0.0046,26.0000000000,15.0000000000,113.9610805238,1.0000000000,74.0000000000,-74.0000000000,65.0000000000,0.0000000000,1.0000000000
2024-10-23 00:45:14.483495,29.9989592281,12.5870000000,6.0000000000,35.7287461874,-78.6997194414,10.0000000000,-0.2142961487,-0.0178213938,4.1383691259,2.9408154370,0.0000000000,0.7339311433,0.0000000000,0.0000000000,14000000.0000000000,356000.0000000000,325.0000000000,0.0000000000,0.0048,26.0000000000,15.0000000000,114.9592281477,1.0000000000,74.0000000000,-74.0000000000,65.0000000000,0.0000000000,1.0000000000
2024-10-23 00:45:15.483431,29.9990000000,12.5870000000,6.0000000000,35.7287834176,-78.6996867873,10.0000000000,-0.2115982700,-0.0070520237,4.1112727270,2.9208484847,0.0000000000,0.6809799876,0.0000000000,0.0000000000,14000000.0000000000,371000.0000000000,387.0000000000,0.0000000000,0.0012,26.0000000000,15.0000000000,115.9575757653,1.0000000000,74.0000000000,-74.0000000000,65.0000000000,0.0000000000,1.0000000000
2024-10-23 00:45:16.483439,29.9999561977,12.5870000000,6.0000000000,35.7288200925,-78.6996546104,10.0000000000,-0.2137268594,-0.0121934276,4.1100000000,2.9104380234,0.0000000000,0.6981203775,0.0000000000,0.0000000000,14000000.0000000000,406000.0000000000,113.0000000000,0.0000000000,-719u,26.0000000000,15.0000000000,116.9561976562,1.0000000000,74.0000000000,-74.0000000000,65.0000000000,0.0000000000,1.0000000000
2024-10-23 00:45:17.483436,30.0000000000,12.5870000000,6.0000000000,35.7288569253,-78.6996222705,10.0000000000,-0.2107296207,-0.0119497402,4.1100000000,2.9004538469,0.0000000000,0.7036960620,0.0000000000,0.0000000000,14000000.0000000000,378000.0000000000,266.0000000000,0.0000000000,-0.0011,26.0000000000,15.0000000000,117.9546153129,1.0000000000,74.0000000000,-74.0000000000,65.0000000000,0.0000000000,1.0000000000
2024-10-23 00:45:18.483379,30.0009532753,12.5870000000,6.0000000000,35.7288935852,-78.6995901999,10.0000000000,-0.2122638612,-0.0101410779,4.1004672466,2.9000000000,0.0000000000,0.6906578275,0.0000000000,0.0000000000,14000000.0000000000,393000.0000000000,214.0000000000,0.0000000000,-0.0028,26.0000000000,15.0000000000,118.9532753411,1.0000000000,74.0000000000,-74.0000000000,65.0000000000,0.0000000000,1.0000000000
2024-10-23 00:45:19.483494,30.0029038497,12.5870000000,6.0000000000,35.7289303308,-78.6995580480,10.0000000000,-0.2094509581,-0.0113648558,4.0904807516,2.8904807516,0.0000000000,0.7014955558,0.0000000000,0.0000000000,14000000.0000000000,400000.0000000000,0.0000000000,0.0000000000,-0.0033,26.0000000000,15.0000000000,119.9519248368,1.0000000000,74.0000000000,-74.0000000000,65.0000000000,0.0000000000,1.0000000000
2024-10-23 00:45:20.483430,30.0001472494,12.5870000000,6.0000000000,35.7289667134,-78.6995261658,10.0000000000,-0.2147493966,-0.0114056658,4.0900000000,2.8900000000,0.0000000000,0.6960511890,0.0000000000,0.0000000000,14000000.0000000000,406000.0000000000,446.0000000000,0.0000000000,-0.0033,26.0000000000,15.0000000000,120.9509168671,1.0000000000,74.0000000000,-74.0000000000,65.0000000000,0.0000000000,1.0000000000
2024-10-23 00:45:21.483398,30.0000000000,12.5870000000,6.0000000000,35.7290033253,-78.6994941397,10.0000000000,-0.2114016132,-0.0107045921,4.0994891926,2.8994891926,0.0000000000,0.6977588492,0.0000000000,0.0000000000,14000000.0000000000,380000.0000000000,57.0000000000,0.0000000000,-0.0034,26.0000000000,15.0000000000,121.9489192562,1.0000000000,74.0000000000,-74.0000000000,65.0000000000,0.0000000000,1.0000000000
2024-10-23 00:45:22.483441,29.9990520635,12.5870000000,6.0000000000,35.7290399893,-78.6994620712,10.0000000000,-0.2119992555,-0.0118528442,4.0905206352,2.8905206352,0.0000000000,0.6984950174,0.0000000000,0.0000000000,14000000.0000000000,379000.0000000000,431.0000000000,0.0000000000,-0.0024,26.0000000000,15.0000000000,122.9479364847,1.0000000000,74.0000000000,-74.0000000000,65.0000000000,0.0000000000,1.0000000000
2024-10-23 00:45:23.483563,29.9999459940,12.5870000000,6.0000000000,35.7290766180,-78.6994299390,10.0000000000,-0.2074386393,-0.0102539970,4.0900000000,2.8900000000,0.0000000000,0.6967039969,0.0000000000,0.0000000000,14000000.0000000000,380000.0000000000,0.0000000000,0.0000000000,-0.0050999999999999995,26.0000000000,15.0000000000,123.9459940131,1.0000000000,74.0000000000,-74.0000000000,65.0000000000,0.0000000000,1.0000000000
2024-10-23 00:45:24.483400,30.0018876135,12.5870000000,6.0000000000,35.7291130489,-78.6993980926,10.0000000000,-0.2134673660,-0.0109026418,4.0805619327,2.8805619327,0.0000000000,0.6969230805,0.0000000000,0.0000000000,14000000.0000000000,380000.0000000000,214.0000000000,0.0000000000,-0.0058,27.0000000000,15.0000000000,124.9438067300,1.0000000000,74.0000000000,-74.0000000000,65.0000000000,0.0000000000,1.0000000000
2024-10-23 00:45:25.483463,30.0010577855,12.5870000000,6.0000000000,35.7291494908,-78.6993660549,10.0000000000,-0.2109105997,-0.0114868071,4.0894221448,2.8894221448,0.0000000000,0.6983042743,0.0000000000,0.0000000000,14000000.0000000000,376000.0000000000,57.0000000000,0.0000000000,-0.0044,26.0000000000,15.0000000000,125.9422144787,1.0000000000,74.0000000000,-74.0000000000,65.0000000000,0.0000000000,1.0000000000
2024-10-23 00:45:26.483453,30.0000593320,12.5870000000,6.0000000000,35.7291861225,-78.6993340986,10.0000000000,-0.2122464560,-0.0110889037,4.0900000000,2.8900000000,0.0000000000,0.6978971490,0.0000000000,0.0000000000,14000000.0000000000,376000.0000000000,389.0000000000,0.0000000000,-0.002,26.0000000000,15.0000000000,126.9406679757,1.0000000000,73.0000000000,-73.0000000000,65.0000000000,0.0000000000,1.0000000000
2024-10-23 00:45:27.483449,29.9990610335,12.5870000000,6.0000000000,35.7292227601,-78.6993020592,10.0000000000,-0.2096955812,-0.0109732737,4.0900000000,2.8900000000,0.0000000000,0.6977383173,0.0000000000,0.0000000000,14000000.0000000000,370000.0000000000,377.0000000000,0.0000000000,0.0025,27.0000000000,15.0000000000,127.9389665146,1.0000000000,73.0000000000,-73.0000000000,65.0000000000,0.0000000000,1.0000000000
2024-10-23 00:45:28.483447,29.9990000000,12.5870000000,6.0000000000,35.7292592990,-78.6992700181,10.0000000000,-0.2110810450,-0.0110181970,4.0806286801,2.8806286801,0.0000000000,0.6969767675,0.0000000000,0.0000000000,14000000.0000000000,394000.0000000000,269.0000000000,0.0000000000,0.0022,26.0000000000,15.0000000000,128.9371319906,1.0000000000,73.0000000000,-73.0000000000,65.0000000000,0.0000000000,1.0000000000
2024-10-23 00:45:29.483441,29.9990000000,12.5870000000,6.0000000000,35.7292959383,-78.6992379657,10.0000000000,-0.2079365398,-0.0104851370,4.0800000000,2.8800000000,0.0000000000,0.6981654790,0.0000000000,0.0000000000,14000000.0000000000,378000.0000000000,192.0000000000,0.0000000000,-0.0021000000000000003,27.0000000000,15.0000000000,129.9356484542,1.0000000000,73.0000000000,-73.0000000000,65.0000000000,0.0000000000,1.0000000000
2024-10-23 00:45:30.483446,29.9999336581,12.5870000000,6.0000000000,35.7293322852,-78.6992061163,10.0000000000,-0.2138031377,-0.0114851999,4.0800000000,2.8800000000,0.0000000000,0.6985212830,0.0000000000,0.0000000000,14000000.0000000000,363000.0000000000,168.0000000000,0.0000000000,-0.0031000000000000003,26.0000000000,15.0000000000,130.9336580820,1.0000000000,73.0000000000,-73.0000000000,65.0000000000,0.0000000000,1.0000000000
2024-10-23 00:45:31.483436,30.0018627975,12.5870000000,6.0000000000,35.7293686961,-78.6991741952,10.0000000000,-0.2138878164,-0.0116452687,4.0986279746,2.8986279746,0.0000000000,0.6980340391,0.0000000000,0.0000000000,14000000.0000000000,383000.0000000000,380.0000000000,0.0000000000,-440u,26.0000000000,15.0000000000,131.9313987296,1.0000000000,73.0000000000,-73.0000000000,65.0000000000,0.0000000000,1.0000000000
2024-10-23 00:45:32.483506,30.0001395527,12.5870000000,6.0000000000,35.7294054322,-78.6991420468,10.0000000000,-0.2113294788,-0.0112907374,4.0906977634,2.8906977634,0.0000000000,0.6979315315,0.0000000000,0.0000000000,14000000.0000000000,358000.0000000000,57.0000000000,0.0000000000,304u,26.0000000000,15.0000000000,132.9302236562,1.0000000000,73.0000000000,-73.0000000000,65.0000000000,0.0000000000,1.0000000000
2024-10-23 00:45:33.483441,30.0000000000,12.5870000000,6.0000000000,35.7294420878,-78.6991099848,10.0000000000,-0.2102534987,-0.0111892635,4.0900000000,2.8900000000,0.0000000000,0.6980147216,0.0000000000,0.0000000000,14000000.0000000000,388000.0000000000,0.0000000000,0.0000000000,-717u,26.0000000000,15.0000000000,133.9288221710,1.0000000000,73.0000000000,-73.0000000000,65.0000000000,0.0000000000,1.0000000000
2024-10-23 00:45:34.483638,30.0000000000,12.5870000000,6.0000000000,35.7294787444,-78.6990779227,10.0000000000,-0.2104556332,-0.0107034033,4.0714471799,2.8807235900,0.0000000000,0.6975945642,0.0000000000,0.0000000000,14000000.0000000000,346000.0000000000,79.0000000000,0.0000000000,-0.0026000000000000003,26.0000000000,16.0000000000,134.9276410026,1.0000000000,73.0000000000,-73.0000000000,65.0000000000,0.0000000000,1.0000000000
2024-10-23 00:45:35.483447,29.9990740121,12.5870000000,6.0000000000,35.7295151060,-78.6990460610,10.0000000000,-0.2121502779,-0.0119638498,4.0792598791,2.8892598791,0.0000000000,0.6983829801,0.0000000000,0.0000000000,14000000.0000000000,389000.0000000000,211.0000000000,0.0000000000,-0.0024,26.0000000000,15.0000000000,135.9259879100,1.0000000000,73.0000000000,-73.0000000000,65.0000000000,0.0000000000,1.0000000000
2024-10-23 00:45:36.483424,29.9999243512,12.5870000000,6.0000000000,35.7295516313,-78.6990141208,10.0000000000,-0.2132802275,-0.0116351907,4.0892435124,2.8900000000,0.0000000000,0.6978830463,0.0000000000,0.0000000000,14000000.0000000000,378000.0000000000,388.0000000000,0.0000000000,-595u,26.0000000000,15.0000000000,136.9243512449,1.0000000000,73.0000000000,-73.0000000000,65.0000000000,0.0000000000,1.0000000000
2024-10-23 00:45:37.483510,30.0018463330,12.5870000000,6.0000000000,35.7295880956,-78.6989821587,10.0000000000,-0.2129553265,-0.0116056102,4.0992316649,2.8992316649,0.0000000000,0.6980652206,0.0000000000,0.0000000000,14000000.0000000000,361000.0000000000,113.0000000000,0.0000000000,-503u,26.0000000000,15.0000000000,137.9231664905,1.0000000000,73.0000000000,-73.0000000000,65.0000000000,0.0000000000,1.0000000000
2024-10-23 00:45:38.483496,30.0010787984,12.5870000000,6.0000000000,35.7296248002,-78.6989500373,10.0000000000,-0.2101604704,-0.0110471200,4.0907879836,2.8907879836,0.0000000000,0.6977316167,0.0000000000,0.0000000000,14000000.0000000000,378000.0000000000,212.0000000000,0.0000000000,-0.0026000000000000003,26.0000000000,15.0000000000,138.9212016401,1.0000000000,73.0000000000,-73.0000000000,65.0000000000,0.0000000000,1.0000000000
2024-10-23 00:45:39.483415,30.0000797318,12.5870000000,6.0000000000,35.7296612898,-78.6989180514,10.0000000000,-0.2123459955,-0.0119196396,4.0900000000,2.8900000000,0.0000000000,0.6982572173,0.0000000000,0.0000000000,14000000.0000000000,411000.0000000000,269.0000000000,0.0000000000,-0.004200000000000001,26.0000000000,15.0000000000,139.9202682394,1.0000000000,73.0000000000,-73.0000000000,65.0000000000,0.0000000000,1.0000000000
2024-10-23 00:45:40.483410,29.9990807980,12.5870000000,6.0000000000,35.7296979347,-78.6988859936,10.0000000000,-0.2121543466,-0.0114223963,4.0808079803,2.8808079803,0.0000000000,0.6975514758,0.0000000000,0.0000000000,14000000.0000000000,373000.0000000000,113.0000000000,0.0000000000,-0.0038,26.0000000000,15.0000000000,140.9192019750,1.0000000000,73.0000000000,-73.0000000000,65.0000000000,0.0000000000,1.0000000000
2024-10-23 00:45:41.483394,29.9990000000,12.5870000000,6.0000000000,35.7297343141,-78.6988541168,10.0000000000,-0.2140867262,-0.0120166591,4.0891796894,2.8891796894,0.0000000000,0.6984504396,0.0000000000,0.0000000000,14000000.0000000000,368000.0000000000,325.0000000000,0.0000000000,-0.0028,26.0000000000,15.0000000000,141.9179689368,1.0000000000,73.0000000000,-73.0000000000,65.0000000000,0.0000000000,1.0000000000
2024-10-23 00:45:42.483509,29.9990000000,12.5870000000,6.0000000000,35.7297710289,-78.6988219873,10.0000000000,-0.2111489588,-0.0112193008,4.0900000000,2.8900000000,0.0000000000,0.6974101073,0.0000000000,0.0000000000,14000000.0000000000,379000.0000000000,113.0000000000,0.0000000000,-549u,26.0000000000,15.0000000000,142.9165448951,1.0000000000,73.0000000000,-73.0000000000,65.0000000000,0.0000000000,1.0000000000
2024-10-23 00:45:43.483470,29.9990000000,12.5870000000,6.0000000000,35.7298075880,-78.6987900209,10.0000000000,-0.2122683390,-0.0117092086,4.0900000000,2.8900000000,0.0000000000,0.6980577326,0.0000000000,0.0000000000,14000000.0000000000,385000.0000000000,57.0000000000,0.0000000000,0.0023,26.0000000000,15.0000000000,143.9149724531,1.0000000000,73.0000000000,-73.0000000000,65.0000000000,0.0000000000,1.0000000000
2024-10-23 00:45:44.483450,29.9999133598,12.5870000000,6.0000000000,35.7298443116,-78.6987577985,10.0000000000,-0.2079834618,-0.0113446368,4.0808664017,2.8900000000,0.0000000000,0.6979248755,0.0000000000,0.0000000000,14000000.0000000000,363000.0000000000,328.0000000000,0.0000000000,0.0034,26.0000000000,15.0000000000,144.9133598330,1.0000000000,73.0000000000,-73.0000000000,65.0000000000,0.0000000000,1.0000000000
