time,Altitude,BatteryVolts,GPSFix,Latitude,Longitude,NumberOfSatellites,Pitch,Roll,VelocityX,VelocityY,VelocityZ,Yaw,blerDl,blerUl,brateDl,brateUl,buff,cc,cfo,mcsDl,mcsUl,num,pci,pl,rsrp,snr,ta_us,turbo
2024-10-23 01:05:22.103999,-0.0170000000,12.5870000000,6.0000000000,35.7274823000,-78.6962747000,10.0000000000,0.0009845228,0.0012108463,-0.0100000000,0.0100000000,0.0000000000,-0.0069347200,0.0000000000,0.0000000000,3200000.0000000000,167000.0000000000,168.0000000000,0.0000000000,0.44,20.0000000000,18.0000000000,3.2079024138,1.0000000000,70.0000000000,-70.0000000000,67.0000000000,0.0000000000,1.0000000000
2024-10-23 01:05:23.103865,-0.0170000000,12.5870000000,6.0000000000,35.7274823000,-78.6962747000,10.0000000000,0.0009924594,0.0012066999,-0.0100000000,0.0100000000,0.0000000000,-0.0065526165,0.0000000000,0.0000000000,14000000.0000000000,406000.0000000000,57.0000000000,0.0000000000,-0.004200000000000001,26.0000000000,15.0000000000,4.2060770936,1.0000000000,70.0000000000,-70.0000000000,68.0000000000,0.0000000000,1.0000000000
2024-10-23 01:05:24.103878,-0.0170000000,12.5870000000,6.0000000000,35.7274823000,-78.6962747000,10.0000000000,0.0009948263,0.0012058155,-0.0100000000,0.0100000000,0.0000000000,-0.0061651922,0.0000000000,0.0000000000,14000000.0000000000,384000.0000000000,446.0000000000,0.0000000000,-0.0040999999999999995,26.0000000000,15.0000000000,5.2038582554,1.0000000000,70.0000000000,-70.0000000000,68.0000000000,0.0000000000,1.0000000000
2024-10-23 01:05:25.103824,-0.0170000000,12.5870000000,6.0000000000,35.7274823000,-78.6962747000,10.0000000000,0.0009970147,0.0012099979,-0.0100000000,0.0100000000,0.0000000000,-0.0057918598,0.0000000000,0.0000000000,14000000.0000000000,362000.0000000000,329.0000000000,0.0000000000,-0.0046,26.0000000000,15.0000000000,6.2019206232,1.0000000000,70.0000000000,-70.0000000000,68.0000000000,0.0000000000,1.0000000000
2024-10-23 01:05:26.104073,-0.0170000000,12.5870000000,6.0000000000,35.7274823000,-78.6962747000,10.0000000000,0.0010086710,0.0012148429,-0.0100000000,0.0100000000,0.0000000000,-0.0054254571,0.0000000000,0.0000000000,14000000.0000000000,395000.0000000000,168.0000000000,0.0000000000,-0.0044,26.0000000000,15.0000000000,7.2008139865,1.0000000000,70.0000000000,-70.0000000000,68.0000000000,0.0000000000,1.0000000000
2024-10-23 01:05:27.103906,-0.0170000000,12.5870000000,6.0000000000,35.7274823000,-78.6962747000,10.0000000000,0.0010078558,0.0012100661,-0.0100000000,0.0100000000,0.0000000000,-0.0050621267,0.0000000000,0.0000000000,14000000.0000000000,359000.0000000000,57.0000000000,0.0000000000,-0.0045000000000000005,26.0000000000,16.0000000000,8.1987226491,1.0000000000,70.0000000000,-70.0000000000,68.0000000000,0.0000000000,1.0000000000
2024-10-23 01:05:28.103854,-0.0132585742,12.5870000000,6.0000000000,35.7274823000,-78.6962747000,10.0000000000,0.0010134047,0.0012069754,-0.0100000000,0.0100000000,0.0000000000,-0.0046931543,0.0000000000,0.0000000000,14000000.0000000000,385000.0000000000,325.0000000000,0.0000000000,-0.0043,26.0000000000,15.0000000000,9.1969171495,1.0000000000,70.0000000000,-70.0000000000,68.0000000000,0.0000000000,1.0000000000
2024-10-23 01:05:29.103911,0.0020000000,12.5870000000,6.0000000000,35.7274823000,-78.6962747000,10.0000000000,0.0010687649,0.0012630577,-0.0080526062,0.0080526062,0.0000000000,-0.0043249171,0.0000000000,0.0000000000,14000000.0000000000,368000.0000000000,113.0000000000,0.0000000000,-0.0043,26.0000000000,15.0000000000,10.1947393751,1.0000000000,70.0000000000,-70.0000000000,68.0000000000,0.0000000000,1.0000000000
2024-10-23 01:05:30.103892,0.0020000000,12.5870000000,6.0000000000,35.7274823000,-78.6962747000,10.0000000000,0.0012905286,0.0014733807,0.0000000000,0.0000000000,0.0000000000,-0.0039513817,0.0000000000,0.0000000000,14000000.0000000000,374000.0000000000,57.0000000000,0.0000000000,-0.0044,26.0000000000,16.0000000000,11.1924788409,1.0000000000,70.0000000000,-70.0000000000,68.0000000000,0.0000000000,1.0000000000
2024-10-23 01:05:31.103928,0.0020000000,12.5870000000,6.0000000000,35.7274823000,-78.6962747000,10.0000000000,0.0015751151,0.0017590326,0.0000000000,0.0000000000,0.0000000000,-0.0035640355,0.0000000000,0.0000000000,14000000.0000000000,373000.0000000000,180.0000000000,0.0000000000,-0.004,26.0000000000,15.0000000000,12.1899018771,1.0000000000,70.0000000000,-70.0000000000,68.0000000000,0.0000000000,1.0000000000
2024-10-23 01:05:32.103917,0.0020000000,12.5870000000,6.0000000000,35.7274823000,-78.6962747000,10.0000000000,0.0018831623,0.0020685280,0.0000000000,0.0000000000,0.0000000000,-0.0031455072,0.0000000000,0.0000000000,14000000.0000000000,388000.0000000000,57.0000000000,0.0000000000,-0.0043,26.0000000000,15.0000000000,13.1874105559,1.0000000000,70.0000000000,-70.0000000000,68.0000000000,0.0000000000,1.0000000000
2024-10-23 01:05:33.103937,0.0229529867,12.5870000000,6.0000000000,35.7274823000,-78.6962747000,10.0000000000,0.0022003795,0.0023859217,0.0000000000,0.0000000000,-0.0667528780,-0.0027126779,0.0000000000,0.0000000000,14000000.0000000000,381000.0000000000,224.0000000000,0.0000000000,-0.004200000000000001,26.0000000000,15.0000000000,14.1854246612,1.0000000000,70.0000000000,-70.0000000000,68.0000000000,0.0000000000,1.0000000000
2024-10-23 01:05:34.103893,0.3312232279,12.5870000000,6.0000000000,35.7274823184,-78.6962747184,10.0000000000,0.0024004675,0.0025916708,0.0000000000,0.0000000000,-0.5767743492,-0.0024782129,0.0000000000,0.0000000000,14000000.0000000000,367000.0000000000,446.0000000000,0.0000000000,-0.0039,26.0000000000,15.0000000000,15.1837070756,1.0000000000,70.0000000000,-70.0000000000,68.0000000000,0.0000000000,1.0000000000
2024-10-23 01:05:35.103874,1.6736337457,12.5870000000,6.0000000000,35.7274824182,-78.6962748182,10.0000000000,0.0024751559,0.0026889802,0.0000000000,0.0000000000,-1.7071123494,-0.0019516366,0.0000000000,0.0000000000,14000000.0000000000,371000.0000000000,158.0000000000,0.0000000000,-0.0043,26.0000000000,16.0000000000,16.1816438580,1.0000000000,70.0000000000,-70.0000000000,68.0000000000,0.0000000000,1.0000000000
2024-10-23 01:05:36.103875,3.8529997903,12.5870000000,6.0000000000,35.7274825000,-78.6962749179,10.0000000000,0.0037084030,0.0041004822,-0.0017940709,0.0017940709,-2.4582059291,0.0031992825,0.0000000000,0.0000000000,14000000.0000000000,363000.0000000000,305.0000000000,0.0000000000,-0.0035,26.0000000000,15.0000000000,17.1794070945,1.0000000000,70.0000000000,-70.0000000000,68.0000000000,0.0000000000,1.0000000000
2024-10-23 01:05:37.103844,6.4010490862,12.5870000000,6.0000000000,35.7274825000,-78.6962750000,10.0000000000,0.0034009261,0.0043142992,-0.0100000000,0.0117804695,-2.4428781221,0.0032439663,0.0000000000,0.0000000000,14000000.0000000000,381000.0000000000,57.0000000000,0.0000000000,-0.0036000000000000003,26.0000000000,15.0000000000,18.1780469471,1.0000000000,70.0000000000,-70.0000000000,68.0000000000,0.0000000000,1.0000000000
2024-10-23 01:05:38.103873,8.8883857559,12.5870000000,6.0000000000,35.7274825000,-78.6962750000,10.0000000000,0.0032666941,0.0041202798,-0.0100000000,0.0200000000,-2.4117615214,0.0032439940,0.0000000000,0.0000000000,14000000.0000000000,407000.0000000000,113.0000000000,0.0000000000,-0.0034,26.0000000000,15.0000000000,19.1761521369,1.0000000000,70.0000000000,-70.0000000000,68.0000000000,0.0000000000,1.0000000000
2024-10-23 01:05:39.103895,11.3669110534,12.5870000000,6.0000000000,35.7274825000,-78.6962749825,10.0000000000,0.0033927756,0.0034725340,-0.0100000000,0.0182543909,-2.4234912182,0.0032405991,0.0000000000,0.0000000000,14000000.0000000000,367000.0000000000,0.0000000000,0.0000000000,-0.0038,26.0000000000,15.0000000000,20.1745609086,1.0000000000,70.0000000000,-70.0000000000,68.0000000000,0.0000000000,1.0000000000
2024-10-23 01:05:40.103856,13.8478335555,12.5870000000,6.0000000000,35.7274825000,-78.6962749000,10.0000000000,0.0029205089,0.0029075067,-0.0100000000,0.0100000000,-2.4417339471,0.0033361418,0.0000000000,0.0000000000,14000000.0000000000,377000.0000000000,57.0000000000,0.0000000000,-0.0036000000000000003,25.0000000000,16.0000000000,21.1733947064,1.0000000000,70.0000000000,-70.0000000000,68.0000000000,0.0000000000,1.0000000000
2024-10-23 01:05:41.103817,16.3453235639,12.5870000000,6.0000000000,35.7274825000,-78.6962748828,10.0000000000,0.0027371954,0.0025123085,-0.0100000000,0.0082840785,-2.4500000000,0.0033013546,0.0000000000,0.0000000000,14000000.0000000000,352000.0000000000,276.0000000000,0.0000000000,-0.0037,26.0000000000,15.0000000000,22.1715921518,1.0000000000,70.0000000000,-70.0000000000,68.0000000000,0.0000000000,1.0000000000
2024-10-23 01:05:42.103839,18.8416130991,12.5870000000,6.0000000000,35.7274825000,-78.6962748000,10.0000000000,0.0033613978,0.0029934817,-0.0100000000,0.0000000000,-2.4500000000,0.0033491743,0.0000000000,0.0000000000,14000000.0000000000,352000.0000000000,324.0000000000,0.0000000000,-0.0039,25.0000000000,15.0000000000,23.1693097918,1.0000000000,70.0000000000,-70.0000000000,68.0000000000,0.0000000000,1.0000000000
2024-10-23 01:05:43.103817,21.3353544655,12.5870000000,6.0000000000,35.7274825000,-78.6962748167,10.0000000000,0.0033452238,0.0041380454,-0.0100000000,0.0016727929,-2.4500000000,0.0030728599,0.0000000000,0.0000000000,14000000.0000000000,373000.0000000000,168.0000000000,0.0000000000,-0.004,25.0000000000,15.0000000000,24.1672792854,1.0000000000,70.0000000000,-70.0000000000,68.0000000000,0.0000000000,1.0000000000
2024-10-23 01:05:44.103906,23.8939871284,12.5870000000,6.0000000000,35.7274825000,-78.6962749166,10.0000000000,0.0037391638,0.0042297630,-0.0100000000,0.0116576203,-2.3836951886,0.0034936016,0.0000000000,0.0000000000,14000000.0000000000,390000.0000000000,325.0000000000,0.0000000000,-0.0037,25.0000000000,15.0000000000,25.1657620285,1.0000000000,70.0000000000,-70.0000000000,68.0000000000,0.0000000000,1.0000000000
2024-10-23 01:05:45.103740,26.6499879034,12.5870000000,6.0000000000,35.7274825000,-78.6962750000,10.0000000000,0.0036524617,0.0045467947,-0.0100000000,0.0200000000,-1.9471103844,0.0031806333,0.0000000000,0.0000000000,14000000.0000000000,384000.0000000000,308.0000000000,0.0000000000,-0.0037,26.0000000000,15.0000000000,26.1633168501,1.0000000000,70.0000000000,-70.0000000000,68.0000000000,0.0000000000,1.0000000000
2024-10-23 01:05:46.103781,28.3013476117,12.5870000000,6.0000000000,35.7274825000,-78.6962750000,10.0000000000,0.0034559604,0.0041299929,-0.0100000000,0.0200000000,-1.3376478633,0.0033467314,0.0000000000,0.0000000000,14000000.0000000000,394000.0000000000,0.0000000000,0.0000000000,-0.0037,26.0000000000,15.0000000000,27.1614747778,1.0000000000,70.0000000000,-70.0000000000,68.0000000000,0.0000000000,1.0000000000
2024-10-23 01:05:47.103894,29.3959964319,12.5870000000,6.0000000000,35.7274825158,-78.6962750000,10.0000000000,0.0044598475,0.0040922964,-0.0115805388,0.0200000000,-0.8214898249,0.0032355501,0.0000000000,0.0000000000,14000000.0000000000,412000.0000000000,144.0000000000,0.0000000000,-0.0037,26.0000000000,15.0000000000,28.1580538840,1.0000000000,70.0000000000,-70.0000000000,68.0000000000,0.0000000000,1.0000000000
2024-10-23 01:05:48.103823,29.9428545079,12.5870000000,6.0000000000,35.7274826000,-78.6962750000,10.0000000000,0.0040009740,0.0036997296,-0.0200000000,0.0200000000,-0.2878631025,0.0033892015,0.0000000000,0.0000000000,14000000.0000000000,379000.0000000000,380.0000000000,0.0000000000,-0.0036000000000000003,26.0000000000,15.0000000000,29.1553422437,1.0000000000,70.0000000000,-70.0000000000,68.0000000000,0.0000000000,1.0000000000
2024-10-23 01:05:49.103857,29.9853734217,12.5870000000,6.0000000000,35.7274826000,-78.6962750000,10.0000000000,0.0035484476,0.0031246847,-0.0200000000,0.0200000000,0.0378344253,0.0033934359,0.0000000000,0.0000000000,14000000.0000000000,389000.0000000000,224.0000000000,0.0000000000,-0.0038,26.0000000000,15.0000000000,30.1520696840,1.0000000000,70.0000000000,-70.0000000000,68.0000000000,0.0000000000,1.0000000000
2024-10-23 01:05:50.103880,29.9538564383,12.5870000000,6.0000000000,35.7274826000,-78.6962750000,10.0000000000,0.0031434477,0.0032026670,-0.0200000000,0.0200000000,-0.0314356169,0.0034361815,0.0000000000,0.0000000000,14000000.0000000000,394000.0000000000,0.0000000000,0.0000000000,-0.0038,26.0000000000,15.0000000000,31.1435616854,1.0000000000,70.0000000000,-70.0000000000,68.0000000000,0.0000000000,1.0000000000
2024-10-23 01:05:51.103867,29.9537052948,12.5870000000,6.0000000000,35.7274826000,-78.6962750000,10.0000000000,0.0030577804,0.0032314708,-0.0200000000,0.0200000000,-0.0400000000,-0.0071228302,0.0000000000,0.0000000000,13000000.0000000000,348000.0000000000,377.0000000000,0.0000000000,-0.0036000000000000003,25.0000000000,16.0000000000,32.1410589608,1.0000000000,70.0000000000,-70.0000000000,68.0000000000,0.0000000000,1.0000000000
2024-10-23 01:05:52.103879,29.9589727838,12.5870000000,6.0000000000,35.7274825861,-78.6962750000,10.0000000000,0.0026389909,0.0026844342,-0.0200000000,0.0200000000,-0.0386103088,-0.2408785145,0.0000000000,0.0000000000,14000000.0000000000,387000.0000000000,377.0000000000,0.0000000000,-0.0036000000000000003,26.0000000000,15.0000000000,33.1389691210,1.0000000000,70.0000000000,-70.0000000000,68.0000000000,0.0000000000,1.0000000000
2024-10-23 01:05:53.103798,29.9637660645,12.5870000000,6.0000000000,35.7274826508,-78.6962755210,10.0000000000,-0.0332842608,0.0206530573,0.0458098934,-0.1568640886,-0.0272579211,-1.3482962044,0.0000000000,0.0000000000,14000000.0000000000,390000.0000000000,142.0000000000,0.0000000000,-0.0036000000000000003,26.0000000000,16.0000000000,34.1371039446,1.0000000000,70.0000000000,-70.0000000000,68.0000000000,0.0000000000,1.0000000000
2024-10-23 01:05:54.103778,29.9555937729,12.5870000000,6.0000000000,35.7274847104,-78.6962824019,10.0000000000,-0.2771094633,0.1241918525,0.5750976654,-1.5800866516,-0.0113540902,-1.6468524163,0.0000000000,0.0000000000,14000000.0000000000,391000.0000000000,181.0000000000,0.0000000000,-0.0036000000000000003,26.0000000000,15.0000000000,35.1354090182,1.0000000000,70.0000000000,-70.0000000000,68.0000000000,0.0000000000,1.0000000000
2024-10-23 01:05:55.103857,29.9531339262,12.5870000000,6.0000000000,35.7274936616,-78.6963115874,10.0000000000,-0.3442412152,-0.0209943949,1.3568741551,-3.6765157570,-0.0186607384,-1.1616525775,0.0000000000,0.0000000000,14000000.0000000000,344000.0000000000,491.0000000000,0.0000000000,-0.002,25.0000000000,16.0000000000,36.1339261575,1.0000000000,70.0000000000,-70.0000000000,68.0000000000,0.0000000000,1.0000000000
2024-10-23 01:05:56.103830,29.9536013721,12.5870000000,6.0000000000,35.7275077862,-78.6963583634,10.0000000000,-0.2205479897,0.0364242121,1.6746163551,-4.4565751910,-0.0113287596,-1.3806427232,0.0000000000,0.0000000000,14000000.0000000000,373000.0000000000,113.0000000000,0.0000000000,-188u,26.0000000000,16.0000000000,37.1328759551,1.0000000000,70.0000000000,-70.0000000000,68.0000000000,0.0000000000,1.0000000000
2024-10-23 01:05:57.103999,29.9519166018,12.5870000000,6.0000000000,35.7275235213,-78.6964094007,10.0000000000,-0.2186284528,0.0225408573,1.7686905689,-4.6430943113,-0.0186905689,-1.3619865383,0.0000000000,0.0000000000,14000000.0000000000,357000.0000000000,224.0000000000,0.0000000000,-0.0027,26.0000000000,15.0000000000,38.1309431135,1.0000000000,70.0000000000,-70.0000000000,68.0000000000,0.0000000000,1.0000000000
2024-10-23 01:05:58.103802,29.9591645997,12.5870000000,6.0000000000,35.7275396833,-78.6964620453,10.0000000000,-0.2123771506,0.0112248560,1.7625879994,-4.7312939997,-0.0087060003,-1.2961858343,0.0000000000,0.0000000000,14000000.0000000000,397000.0000000000,269.0000000000,0.0000000000,12u,26.0000000000,15.0000000000,39.1293999683,1.0000000000,70.0000000000,-70.0000000000,68.0000000000,0.0000000000,1.0000000000
2024-10-23 01:05:59.103763,29.9677681028,12.5870000000,6.0000000000,35.7275557483,-78.6965148465,10.0000000000,-0.2096212460,0.0246200921,1.7787198287,-4.7387198287,0.0000000000,-1.3709965928,0.0000000000,0.0000000000,14000000.0000000000,394000.0000000000,315.0000000000,0.0000000000,-547u,26.0000000000,15.0000000000,40.1280171322,1.0000000000,70.0000000000,-70.0000000000,68.0000000000,0.0000000000,1.0000000000
2024-10-23 01:06:00.103837,29.9735067617,12.5870000000,6.0000000000,35.7275717144,-78.6965674639,10.0000000000,-0.2061276494,0.0150496191,1.7687330958,-4.7249323833,0.0000000000,-1.3225555381,0.0000000000,0.0000000000,14000000.0000000000,394000.0000000000,493.0000000000,0.0000000000,-994u,26.0000000000,15.0000000000,41.1266904164,1.0000000000,70.0000000000,-70.0000000000,68.0000000000,0.0000000000,1.0000000000
2024-10-23 01:06:01.103848,29.9773758372,12.5870000000,6.0000000000,35.7275875919,-78.6966199145,10.0000000000,-0.2060482512,0.0202896065,1.7612527907,-4.6887472093,0.0000000000,-1.3402205160,0.0000000000,0.0000000000,14000000.0000000000,402000.0000000000,318.0000000000,0.0000000000,176u,26.0000000000,14.0000000000,42.1252790724,1.0000000000,70.0000000000,-70.0000000000,68.0000000000,0.0000000000,1.0000000000
2024-10-23 01:06:02.103738,29.9802478427,12.5870000000,6.0000000000,35.7276034456,-78.6966718191,10.0000000000,-0.2046356802,0.0205607884,1.7687607867,-4.6787607867,0.0000000000,-1.3432043357,0.0000000000,0.0000000000,14000000.0000000000,384000.0000000000,113.0000000000,0.0000000000,-815u,26.0000000000,16.0000000000,43.1239213326,1.0000000000,70.0000000000,-70.0000000000,68.0000000000,0.0000000000,1.0000000000
2024-10-23 01:06:03.103812,29.9823682896,12.5870000000,6.0000000000,35.7276191397,-78.6967235469,10.0000000000,-0.2105080425,0.0196991421,1.7624552639,-4.6724552639,0.0000000000,-1.3320703262,0.0000000000,0.0000000000,14000000.0000000000,402000.0000000000,168.0000000000,0.0000000000,70u,26.0000000000,15.0000000000,44.1227631968,1.0000000000,70.0000000000,-70.0000000000,68.0000000000,0.0000000000,1.0000000000
2024-10-23 01:06:04.103864,29.9848788142,12.5870000000,6.0000000000,35.7276349269,-78.6967752138,10.0000000000,-0.2071679963,0.0211536358,1.7800000000,-4.6875762840,0.0000000000,-1.3423790517,0.0000000000,0.0000000000,14000000.0000000000,382000.0000000000,426.0000000000,0.0000000000,0.002,26.0000000000,15.0000000000,45.1211858017,1.0000000000,70.0000000000,-70.0000000000,68.0000000000,0.0000000000,1.0000000000
2024-10-23 01:06:05.103799,29.9842392865,12.5870000000,6.0000000000,35.7276507904,-78.6968271975,10.0000000000,-0.2069232141,0.0202202884,1.7788035677,-4.6700000000,0.0000000000,-1.3364107404,0.0000000000,0.0000000000,14000000.0000000000,370000.0000000000,223.0000000000,0.0000000000,-578u,26.0000000000,16.0000000000,46.1196432339,1.0000000000,70.0000000000,-70.0000000000,68.0000000000,0.0000000000,1.0000000000
2024-10-23 01:06:06.103841,29.9861185393,12.5870000000,6.0000000000,35.7276665848,-78.6968789640,10.0000000000,-0.2063003951,0.0201316686,1.7700000000,-4.6676292145,0.0011853928,-1.3384659798,0.0000000000,0.0000000000,14000000.0000000000,414000.0000000000,113.0000000000,0.0000000000,-0.0018000000000000002,25.0000000000,15.0000000000,47.1185392750,1.0000000000,70.0000000000,-70.0000000000,68.0000000000,0.0000000000,1.0000000000
2024-10-23 01:06:07.103771,29.9867675331,12.5870000000,6.0000000000,35.7276824365,-78.6969307976,10.0000000000,-0.2064964712,0.0208076030,1.7700000000,-4.6511623345,0.0100000000,-1.3399784958,0.0000000000,0.0000000000,14000000.0000000000,407000.0000000000,113.0000000000,0.0000000000,818u,25.0000000000,15.0000000000,48.1162334466,1.0000000000,70.0000000000,-70.0000000000,68.0000000000,0.0000000000,1.0000000000
2024-10-23 01:06:08.103732,29.9848855255,12.5870000000,6.0000000000,35.7276982087,-78.6969823412,10.0000000000,-0.2066387140,0.0204417013,1.7700000000,-4.6588552550,0.0088552550,-1.3378961915,0.0000000000,0.0000000000,14000000.0000000000,384000.0000000000,224.0000000000,0.0000000000,736u,26.0000000000,15.0000000000,49.1144744994,1.0000000000,70.0000000000,-70.0000000000,68.0000000000,0.0000000000,1.0000000000
2024-10-23 01:06:09.103726,29.9840000000,12.5870000000,6.0000000000,35.7277139895,-78.6970341330,10.0000000000,-0.2086733254,0.0206852290,1.7700000000,-4.6511326147,0.0000000000,-1.3378017780,0.0000000000,0.0000000000,14000000.0000000000,397000.0000000000,103.0000000000,0.0000000000,-0.0013000000000000002,26.0000000000,15.0000000000,50.1132614679,1.0000000000,70.0000000000,-70.0000000000,68.0000000000,0.0000000000,1.0000000000
2024-10-23 01:06:10.103795,29.9838881143,12.5870000000,6.0000000000,35.7277297678,-78.6970856069,10.0000000000,-0.2085070642,0.0208890073,1.7700000000,-4.6600000000,0.0000000000,-1.3389313216,0.0000000000,0.0000000000,14000000.0000000000,370000.0000000000,224.0000000000,0.0000000000,0.0018000000000000002,26.0000000000,15.0000000000,51.1118856671,1.0000000000,70.0000000000,-70.0000000000,68.0000000000,0.0000000000,1.0000000000
2024-10-23 01:06:11.103858,29.9830000000,12.5870000000,6.0000000000,35.7277455517,-78.6971374287,10.0000000000,-0.2068240563,0.0204469626,1.7700000000,-4.6600000000,0.0000000000,-1.3383253534,0.0000000000,0.0000000000,14000000.0000000000,368000.0000000000,335.0000000000,0.0000000000,576u,26.0000000000,16.0000000000,52.1101678245,1.0000000000,70.0000000000,-70.0000000000,68.0000000000,0.0000000000,1.0000000000
2024-10-23 01:06:12.103816,29.9830000000,12.5870000000,6.0000000000,35.7277614089,-78.6971893025,10.0000000000,-0.2063439914,0.0207938632,1.7689184272,-4.6578368543,0.0000000000,-1.3392243200,0.0000000000,0.0000000000,14000000.0000000000,387000.0000000000,0.0000000000,0.0000000000,-0.0018000000000000002,26.0000000000,15.0000000000,53.1081572831,1.0000000000,70.0000000000,-70.0000000000,68.0000000000,0.0000000000,1.0000000000
2024-10-23 01:06:13.103816,29.9830000000,12.5870000000,6.0000000000,35.7277771929,-78.6972410287,10.0000000000,-0.2066097239,0.0203968933,1.7610714518,-4.6421429035,0.0000000000,-1.3393024523,0.0000000000,0.0000000000,14000000.0000000000,367000.0000000000,168.0000000000,0.0000000000,-0.0028,25.0000000000,15.0000000000,54.1071451756,1.0000000000,70.0000000000,-70.0000000000,68.0000000000,0.0000000000,1.0000000000
2024-10-23 01:06:14.103778,29.9830000000,12.5870000000,6.0000000000,35.7277929769,-78.6972925735,10.0000000000,-0.2092893389,0.0208445434,1.7700000000,-4.6589453704,0.0000000000,-1.3385546117,0.0000000000,0.0000000000,14000000.0000000000,372000.0000000000,122.0000000000,0.0000000000,880u,26.0000000000,15.0000000000,55.1054629553,1.0000000000,70.0000000000,-70.0000000000,68.0000000000,0.0000000000,1.0000000000
2024-10-23 01:06:15.103723,29.9828963330,12.5870000000,6.0000000000,35.7278088379,-78.6973443596,10.0000000000,-0.2060393596,0.0205153565,1.7700000000,-4.6510366699,0.0000000000,-1.3399421076,0.0000000000,0.0000000000,14000000.0000000000,370000.0000000000,113.0000000000,0.0000000000,0.0012,26.0000000000,16.0000000000,56.1036669876,1.0000000000,70.0000000000,-70.0000000000,68.0000000000,0.0000000000,1.0000000000
2024-10-23 01:06:16.103767,29.9818978456,12.5870000000,6.0000000000,35.7278246140,-78.6973960018,10.0000000000,-0.2078994132,0.0206322036,1.7700000000,-4.6589784560,0.0000000000,-1.3386149130,0.0000000000,0.0000000000,14000000.0000000000,407000.0000000000,247.0000000000,0.0000000000,0.0016,26.0000000000,15.0000000000,57.1021544025,1.0000000000,70.0000000000,-70.0000000000,68.0000000000,0.0000000000,1.0000000000
2024-10-23 01:06:17.104031,29.9810000000,12.5870000000,6.0000000000,35.7278403857,-78.6974477786,10.0000000000,-0.2058310914,0.0198592911,1.7700000000,-4.6510036063,0.0000000000,-1.3380450116,0.0000000000,0.0000000000,14000000.0000000000,400000.0000000000,168.0000000000,0.0000000000,-0.0017,26.0000000000,15.0000000000,58.1003606325,1.0000000000,70.0000000000,-70.0000000000,68.0000000000,0.0000000000,1.0000000000
2024-10-23 01:06:18.103816,29.9810984983,12.5870000000,6.0000000000,35.7278561661,-78.6974993219,10.0000000000,-0.2092199722,0.0211741915,1.7700000000,-4.6590150174,0.0000000000,-1.3386128539,0.0000000000,0.0000000000,14000000.0000000000,368000.0000000000,113.0000000000,0.0000000000,462u,26.0000000000,16.0000000000,59.0984982585,1.0000000000,70.0000000000,-70.0000000000,69.0000000000,0.0000000000,1.0000000000
2024-10-23 01:06:19.103855,29.9821932690,12.5870000000,6.0000000000,35.7278720172,-78.6975511863,10.0000000000,-0.2050815452,0.0201349067,1.7700000000,-4.6500000000,0.0000000000,-1.3394123192,0.0000000000,0.0000000000,14000000.0000000000,377000.0000000000,57.0000000000,0.0000000000,752u,26.0000000000,15.0000000000,60.0966345152,1.0000000000,69.0000000000,-69.0000000000,69.0000000000,0.0000000000,1.0000000000
2024-10-23 01:06:20.103856,29.9840000000,12.5870000000,6.0000000000,35.7278877125,-78.6976027274,10.0000000000,-0.2094185915,0.0211477304,1.7700000000,-4.6509512393,0.0000000000,-1.3387287595,0.0000000000,0.0000000000,14000000.0000000000,382000.0000000000,380.0000000000,0.0000000000,190u,26.0000000000,15.0000000000,61.0951239315,1.0000000000,69.0000000000,-69.0000000000,69.0000000000,0.0000000000,1.0000000000
2024-10-23 01:06:21.103841,29.9839063620,12.5870000000,6.0000000000,35.7279035795,-78.6976544692,10.0000000000,-0.2056832554,0.0208912296,1.7700000000,-4.6590636204,0.0000000000,-1.3387837901,0.0000000000,0.0000000000,14000000.0000000000,391000.0000000000,264.0000000000,0.0000000000,-589u,26.0000000000,15.0000000000,62.0936379600,1.0000000000,69.0000000000,-69.0000000000,69.0000000000,0.0000000000,1.0000000000
2024-10-23 01:06:22.103754,29.9830000000,12.5870000000,6.0000000000,35.7279193519,-78.6977063300,10.0000000000,-0.2065286636,0.0208390649,1.7690868750,-4.6500000000,0.0000000000,-1.3386549762,0.0000000000,0.0000000000,14000000.0000000000,392000.0000000000,57.0000000000,0.0000000000,-704u,26.0000000000,15.0000000000,63.0913125048,1.0000000000,69.0000000000,-69.0000000000,69.0000000000,0.0000000000,1.0000000000
2024-10-23 01:06:23.103793,29.9830894792,12.5870000000,6.0000000000,35.7279352048,-78.6977580082,10.0000000000,-0.2036561871,0.0206774961,1.7600000000,-4.6500000000,0.0000000000,-1.3389014239,0.0000000000,0.0000000000,14000000.0000000000,367000.0000000000,113.0000000000,0.0000000000,-0.0018000000000000002,26.0000000000,15.0000000000,64.0894792281,1.0000000000,69.0000000000,-69.0000000000,69.0000000000,0.0000000000,1.0000000000
2024-10-23 01:06:24.103793,29.9841745046,12.5870000000,6.0000000000,35.7279508786,-78.6978094197,10.0000000000,-0.2104916282,0.0212930888,1.7608725231,-4.6517450461,0.0000000000,-1.3386461439,0.0000000000,0.0000000000,14000000.0000000000,382000.0000000000,168.0000000000,0.0000000000,-160u,26.0000000000,15.0000000000,65.0872523051,1.0000000000,69.0000000000,-69.0000000000,69.0000000000,0.0000000000,1.0000000000
2024-10-23 01:06:25.103757,29.9859144124,12.5870000000,6.0000000000,35.7279666608,-78.6978611506,10.0000000000,-0.2052790575,0.0206792658,1.7700000000,-4.6691441240,0.0000000000,-1.3390126828,0.0000000000,0.0000000000,14000000.0000000000,390000.0000000000,362.0000000000,0.0000000000,0.0027,26.0000000000,15.0000000000,66.0855876006,1.0000000000,69.0000000000,-69.0000000000,69.0000000000,0.0000000000,1.0000000000
2024-10-23 01:06:26.103878,29.9849157945,12.5870000000,6.0000000000,35.7279825304,-78.6979130534,10.0000000000,-0.2066176145,0.0206939609,1.7700000000,-4.6591579450,0.0000000000,-1.3389552551,0.0000000000,0.0000000000,14000000.0000000000,385000.0000000000,168.0000000000,0.0000000000,0.001,26.0000000000,15.0000000000,67.0842055010,1.0000000000,69.0000000000,-69.0000000000,69.0000000000,0.0000000000,1.0000000000
2024-10-23 01:06:27.103787,29.9840000000,12.5870000000,6.0000000000,35.7279983105,-78.6979646776,10.0000000000,-0.2051771655,0.0208746318,1.7691758039,-4.6491758039,0.0000000000,-1.3390578438,0.0000000000,0.0000000000,14000000.0000000000,418000.0000000000,113.0000000000,0.0000000000,657u,26.0000000000,15.0000000000,68.0824196057,1.0000000000,69.0000000000,-69.0000000000,69.0000000000,0.0000000000,1.0000000000
2024-10-23 01:06:28.103815,29.9841613956,12.5870000000,6.0000000000,35.7280141670,-78.6980164721,10.0000000000,-0.2068357284,0.0208235979,1.7608069782,-4.6408069782,0.0000000000,-1.3393135188,0.0000000000,0.0000000000,14000000.0000000000,350000.0000000000,214.0000000000,0.0000000000,0.0017,25.0000000000,15.0000000000,69.0806978224,1.0000000000,69.0000000000,-69.0000000000,69.0000000000,0.0000000000,1.0000000000
2024-10-23 01:06:29.103813,29.9860792065,12.5870000000,6.0000000000,35.7280298515,-78.6980680950,10.0000000000,-0.2047545052,0.0208257919,1.7692079349,-4.6500000000,0.0000000000,-1.3386977996,0.0000000000,0.0000000000,14000000.0000000000,398000.0000000000,279.0000000000,0.0000000000,-123u,26.0000000000,15.0000000000,70.0792065059,1.0000000000,69.0000000000,-69.0000000000,69.0000000000,0.0000000000,1.0000000000
2024-10-23 01:06:30.103831,29.9869221917,12.5870000000,6.0000000000,35.7280456294,-78.6981197149,10.0000000000,-0.2098698069,0.0213971905,1.7607780826,-4.6515561652,0.0000000000,-1.3385364638,0.0000000000,0.0000000000,14000000.0000000000,363000.0000000000,279.0000000000,0.0000000000,0.0015,26.0000000000,15.0000000000,71.0778082606,1.0000000000,69.0000000000,-69.0000000000,69.0000000000,0.0000000000,1.0000000000
2024-10-23 01:06:31.103832,29.9860000000,12.5870000000,6.0000000000,35.7280614078,-78.6981712500,10.0000000000,-0.2087561772,0.0210137941,1.7700000000,-4.6692403795,0.0000000000,-1.3387823072,0.0000000000,0.0000000000,14000000.0000000000,374000.0000000000,57.0000000000,0.0000000000,63u,26.0000000000,15.0000000000,72.0759620463,1.0000000000,69.0000000000,-69.0000000000,69.0000000000,0.0000000000,1.0000000000
2024-10-23 01:06:32.103848,29.9860000000,12.5870000000,6.0000000000,35.7280772644,-78.6982231175,10.0000000000,-0.2070371882,0.0206607285,1.7700000000,-4.6600000000,0.0000000000,-1.3388688193,0.0000000000,0.0000000000,14000000.0000000000,388000.0000000000,366.0000000000,0.0000000000,-582u,26.0000000000,16.0000000000,73.0736960068,1.0000000000,69.0000000000,-69.0000000000,69.0000000000,0.0000000000,1.0000000000
2024-10-23 01:06:33.103893,29.9861449571,12.5870000000,6.0000000000,35.7280930524,-78.6982748616,10.0000000000,-0.2063823443,0.0207764196,1.7692752143,-4.6585504286,0.0000000000,-1.3388182757,0.0000000000,0.0000000000,14000000.0000000000,360000.0000000000,168.0000000000,0.0000000000,0.0027,25.0000000000,16.0000000000,74.0724785719,1.0000000000,69.0000000000,-69.0000000000,69.0000000000,0.0000000000,1.0000000000
2024-10-23 01:06:34.103856,29.9880709844,12.5870000000,6.0000000000,35.7281089145,-78.6983266486,10.0000000000,-0.2085112594,0.0212676906,1.7607098444,-4.6414196887,0.0000000000,-1.3389328591,0.0000000000,0.0000000000,14000000.0000000000,382000.0000000000,279.0000000000,0.0000000000,0.0028,26.0000000000,15.0000000000,75.0709844352,1.0000000000,69.0000000000,-69.0000000000,69.0000000000,0.0000000000,1.0000000000
2024-10-23 01:06:35.103740,29.9890000000,12.5870000000,6.0000000000,35.7281246013,-78.6983780244,10.0000000000,-0.2091890798,0.0214579191,1.7700000000,-4.6600000000,0.0000000000,-1.3388437734,0.0000000000,0.0000000000,14000000.0000000000,392000.0000000000,224.0000000000,0.0000000000,-334u,26.0000000000,16.0000000000,76.0697002618,1.0000000000,69.0000000000,-69.0000000000,69.0000000000,0.0000000000,1.0000000000
2024-10-23 01:06:36.103898,29.9889313724,12.5870000000,6.0000000000,35.7281403912,-78.6984299618,10.0000000000,-0.2069284736,0.0205066916,1.7700000000,-4.6600000000,0.0000000000,-1.3395789381,0.0000000000,0.0000000000,14000000.0000000000,385000.0000000000,224.0000000000,0.0000000000,-0.0012,26.0000000000,15.0000000000,77.0686275738,1.0000000000,69.0000000000,-69.0000000000,69.0000000000,0.0000000000,1.0000000000
2024-10-23 01:06:37.103812,29.9880000000,12.5870000000,6.0000000000,35.7281562682,-78.6984817869,10.0000000000,-0.2067618149,0.0202164818,1.7693281535,-4.6586563071,0.0000000000,-1.3383186704,0.0000000000,0.0000000000,14000000.0000000000,401000.0000000000,267.0000000000,0.0000000000,84u,26.0000000000,15.0000000000,78.0671846458,1.0000000000,69.0000000000,-69.0000000000,69.0000000000,0.0000000000,1.0000000000
2024-10-23 01:06:38.103773,29.9881296953,12.5870000000,6.0000000000,35.7281721181,-78.6985335397,10.0000000000,-0.2050308328,0.0199038075,1.7600000000,-4.6406484764,0.0000000000,-1.3392176642,0.0000000000,0.0000000000,14000000.0000000000,395000.0000000000,224.0000000000,0.0000000000,559u,26.0000000000,15.0000000000,79.0648476398,1.0000000000,69.0000000000,-69.0000000000,69.0000000000,0.0000000000,1.0000000000
2024-10-23 01:06:39.103933,29.9900630719,12.5870000000,6.0000000000,35.7281877965,-78.6985849734,10.0000000000,-0.2106048191,0.0208606563,1.7600000000,-4.6500000000,0.0000000000,-1.3385078067,0.0000000000,0.0000000000,14000000.0000000000,384000.0000000000,326.0000000000,0.0000000000,-0.0011,26.0000000000,15.0000000000,80.0630719076,1.0000000000,69.0000000000,-69.0000000000,69.0000000000,0.0000000000,1.0000000000
2024-10-23 01:06:40.103854,29.9910000000,12.5870000000,6.0000000000,35.7282035667,-78.6986367571,10.0000000000,-0.2067562677,0.0201046844,1.7606118444,-4.6506118444,0.0000000000,-1.3394398899,0.0000000000,0.0000000000,14000000.0000000000,406000.0000000000,57.0000000000,0.0000000000,161u,26.0000000000,16.0000000000,81.0611844420,1.0000000000,69.0000000000,-69.0000000000,69.0000000000,0.0000000000,1.0000000000
2024-10-23 01:06:41.103893,29.9909401870,12.5870000000,6.0000000000,35.7282193510,-78.6986883043,10.0000000000,-0.2098205753,0.0208188581,1.7700000000,-4.6600000000,0.0000000000,-1.3384741830,0.0000000000,0.0000000000,14000000.0000000000,384000.0000000000,0.0000000000,0.0000000000,157u,26.0000000000,15.0000000000,82.0598130278,1.0000000000,69.0000000000,-69.0000000000,69.0000000000,0.0000000000,1.0000000000
2024-10-23 01:06:42.103818,29.9900000000,12.5870000000,6.0000000000,35.7282352142,-78.6987401030,10.0000000000,-0.2061613741,0.0205893865,1.7694213782,-4.6594213782,0.0000000000,-1.3390282670,0.0000000000,0.0000000000,14000000.0000000000,410000.0000000000,0.0000000000,0.0000000000,-321u,26.0000000000,15.0000000000,83.0578621759,1.0000000000,69.0000000000,-69.0000000000,69.0000000000,0.0000000000,1.0000000000
2024-10-23 01:06:43.103845,29.9901684553,12.5870000000,6.0000000000,35.7282509928,-78.6987919143,10.0000000000,-0.2067695346,0.0207077063,1.7600000000,-4.6494384823,0.0000000000,-1.3383018832,0.0000000000,0.0000000000,14000000.0000000000,411000.0000000000,436.0000000000,0.0000000000,-504u,26.0000000000,15.0000000000,84.0561517663,1.0000000000,69.0000000000,-69.0000000000,69.0000000000,0.0000000000,1.0000000000
2024-10-23 01:06:44.103802,29.9930000000,12.5870000000,6.0000000000,35.7282668496,-78.6988436816,10.0000000000,-0.2055606963,0.0202754781,1.7600000000,-4.6405411592,0.0000000000,-1.3386762763,0.0000000000,0.0000000000,14000000.0000000000,384000.0000000000,224.0000000000,0.0000000000,418u,26.0000000000,15.0000000000,85.0541159228,1.0000000000,69.0000000000,-69.0000000000,69.0000000000,0.0000000000,1.0000000000
2024-10-23 01:06:45.103854,29.9930000000,12.5870000000,6.0000000000,35.7282825268,-78.6988950106,10.0000000000,-0.2118044775,0.0214728500,1.7605232877,-4.6510465754,0.0000000000,-1.3386725242,0.0000000000,0.0000000000,14000000.0000000000,366000.0000000000,113.0000000000,0.0000000000,-210u,26.0000000000,15.0000000000,86.0523287717,1.0000000000,69.0000000000,-69.0000000000,69.0000000000,0.0000000000,1.0000000000
2024-10-23 01:06:46.103832,29.9930515355,12.5870000000,6.0000000000,35.7282983194,-78.6989467798,10.0000000000,-0.2066116060,0.0203205619,1.7700000000,-4.6694846449,0.0000000000,-1.3392579802,0.0000000000,0.0000000000,14000000.0000000000,363000.0000000000,224.0000000000,0.0000000000,0.0013000000000000002,26.0000000000,15.0000000000,87.0515355069,1.0000000000,69.0000000000,-69.0000000000,69.0000000000,0.0000000000,1.0000000000
2024-10-23 01:06:47.103908,29.9939005111,12.5870000000,6.0000000000,35.7283141909,-78.6989986867,10.0000000000,-0.2070826371,0.0203551734,1.7695025554,-4.6595025554,0.0000000000,-1.3391383479,0.0000000000,0.0000000000,14000000.0000000000,363000.0000000000,168.0000000000,0.0000000000,0.0013000000000000002,26.0000000000,15.0000000000,88.0497444636,1.0000000000,69.0000000000,-69.0000000000,69.0000000000,0.0000000000,1.0000000000
2024-10-23 01:06:48.103813,29.9920474936,12.5870000000,6.0000000000,35.7283300457,-78.6990505507,10.0000000000,-0.2025973690,0.0199697951,1.7600000000,-4.6495250636,0.0000000000,-1.3390029932,0.0000000000,0.0000000000,14000000.0000000000,344000.0000000000,267.0000000000,0.0000000000,-694u,26.0000000000,15.0000000000,89.0474936362,1.0000000000,69.0000000000,-69.0000000000,69.0000000000,0.0000000000,1.0000000000
2024-10-23 01:06:49.103896,29.9930910727,12.5870000000,6.0000000000,35.7283457240,-78.6991020542,10.0000000000,-0.2083408758,0.0207622094,1.7600000000,-4.6404553634,0.0000000000,-1.3386322142,0.0000000000,0.0000000000,14000000.0000000000,393000.0000000000,168.0000000000,0.0000000000,-303u,26.0000000000,15.0000000000,90.0455363395,1.0000000000,69.0000000000,-69.0000000000,69.0000000000,0.0000000000,1.0000000000
2024-10-23 01:06:50.103886,29.9950000000,12.5870000000,6.0000000000,35.7283615926,-78.6991536808,10.0000000000,-0.2047453195,0.0199304446,1.7600000000,-4.6504411560,0.0000000000,-1.3395314918,0.0000000000,0.0000000000,14000000.0000000000,389000.0000000000,216.0000000000,0.0000000000,-423u,26.0000000000,15.0000000000,91.0441155988,1.0000000000,69.0000000000,-69.0000000000,70.0000000000,0.0000000000,1.0000000000
2024-10-23 01:06:51.103844,29.9950000000,12.5870000000,6.0000000000,35.7283772688,-78.6992052884,10.0000000000,-0.2107692551,0.0204656298,1.7604232936,-4.6604232936,0.0000000000,-1.3387392747,0.0000000000,0.0000000000,14000000.0000000000,351000.0000000000,151.0000000000,0.0000000000,-0.0011,26.0000000000,16.0000000000,92.0423293615,1.0000000000,69.0000000000,-69.0000000000,70.0000000000,0.0000000000,1.0000000000
2024-10-23 01:06:52.103870,29.9950402608,12.5870000000,6.0000000000,35.7283930401,-78.6992568936,10.0000000000,-0.2071933355,0.0205126075,1.7700000000,-4.6695973925,0.0000000000,-1.3392054484,0.0000000000,0.0000000000,14000000.0000000000,388000.0000000000,0.0000000000,0.0000000000,329u,26.0000000000,15.0000000000,93.0402607531,1.0000000000,69.0000000000,-69.0000000000,70.0000000000,0.0000000000,1.0000000000
2024-10-23 01:06:53.103865,29.9960000000,12.5870000000,6.0000000000,35.7284089033,-78.6993087779,10.0000000000,-0.2077533751,0.0205294556,1.7696181690,-4.6600000000,0.0000000000,-1.3395135859,0.0000000000,0.0000000000,14000000.0000000000,365000.0000000000,491.0000000000,0.0000000000,-765u,26.0000000000,15.0000000000,94.0381830958,1.0000000000,69.0000000000,-69.0000000000,70.0000000000,0.0000000000,1.0000000000
2024-10-23 01:06:54.103774,29.9960000000,12.5870000000,6.0000000000,35.7284246831,-78.6993605116,10.0000000000,-0.2043126531,0.0194347758,1.7600000000,-4.6592619471,0.0000000000,-1.3378060975,0.0000000000,0.0000000000,14000000.0000000000,388000.0000000000,368.0000000000,0.0000000000,535u,26.0000000000,16.0000000000,95.0369026474,1.0000000000,69.0000000000,-69.0000000000,69.0000000000,0.0000000000,1.0000000000
2024-10-23 01:06:55.103843,29.9960348722,12.5870000000,6.0000000000,35.7284404510,-78.6994121994,10.0000000000,-0.2096960815,0.0209974291,1.7603487218,-4.6406974437,0.0000000000,-1.3382891192,0.0000000000,0.0000000000,14000000.0000000000,371000.0000000000,491.0000000000,0.0000000000,-399u,26.0000000000,15.0000000000,96.0348721834,1.0000000000,69.0000000000,-69.0000000000,69.0000000000,0.0000000000,1.0000000000
2024-10-23 01:06:56.103835,29.9970000000,12.5870000000,6.0000000000,35.7284562296,-78.6994637319,10.0000000000,-0.2086057784,0.0204911302,1.7696669473,-4.6596669473,0.0000000000,-1.3386533169,0.0000000000,0.0000000000,14000000.0000000000,411000.0000000000,491.0000000000,0.0000000000,892u,25.0000000000,16.0000000000,97.0333052657,1.0000000000,69.0000000000,-69.0000000000,70.0000000000,0.0000000000,1.0000000000
2024-10-23 01:06:57.103859,29.9970321439,12.5870000000,6.0000000000,35.7284721079,-78.6995156618,10.0000000000,-0.2073036480,0.0197633342,1.7603214392,-4.6500000000,0.0000000000,-1.3384323188,0.0000000000,0.0000000000,14000000.0000000000,372000.0000000000,103.0000000000,0.0000000000,0.0016,26.0000000000,15.0000000000,98.0321439157,1.0000000000,69.0000000000,-69.0000000000,70.0000000000,0.0000000000,1.0000000000
2024-10-23 01:06:58.103901,29.9980000000,12.5870000000,6.0000000000,35.7284878816,-78.6995672749,10.0000000000,-0.2068694245,0.0201298338,1.7696971268,-4.6496971268,0.0000000000,-1.3387589710,0.0000000000,0.0000000000,14000000.0000000000,401000.0000000000,279.0000000000,0.0000000000,0.0012,26.0000000000,15.0000000000,99.0302873201,1.0000000000,69.0000000000,-69.0000000000,70.0000000000,0.0000000000,1.0000000000
2024-10-23 01:06:59.103897,29.9980000000,12.5870000000,6.0000000000,35.7285037459,-78.6996191570,10.0000000000,-0.2070142026,0.0191197104,1.7602840229,-4.6405680457,0.0000000000,-1.3385342143,0.0000000000,0.0000000000,14000000.0000000000,381000.0000000000,321.0000000000,0.0000000000,-961u,26.0000000000,15.0000000000,100.0284022864,1.0000000000,69.0000000000,-69.0000000000,70.0000000000,0.0000000000,1.0000000000
2024-10-23 01:07:00.103806,29.9980540721,12.5870000000,6.0000000000,35.7285194272,-78.6996704032,10.0000000000,-0.2104662862,0.0207705545,1.7700000000,-4.6600000000,0.0000000000,-1.3389319407,0.0000000000,0.0000000000,14000000.0000000000,345000.0000000000,267.0000000000,0.0000000000,-0.0019,26.0000000000,15.0000000000,101.0270360662,1.0000000000,69.0000000000,-69.0000000000,69.0000000000,0.0000000000,1.0000000000
2024-10-23 01:07:01.103904,30.0000503669,12.5870000000,6.0000000000,35.7285351979,-78.6997222045,10.0000000000,-0.2063280230,0.0204797930,1.7694963312,-4.6584889935,0.0000000000,-1.3395832171,0.0000000000,0.0000000000,14000000.0000000000,390000.0000000000,335.0000000000,0.0000000000,-0.0015,25.0000000000,16.0000000000,102.0251834414,1.0000000000,69.0000000000,-69.0000000000,69.0000000000,0.0000000000,1.0000000000
2024-10-23 01:07:02.103813,30.0019537239,12.5870000000,6.0000000000,35.7285509309,-78.6997737829,10.0000000000,-0.1535885409,0.0133590172,1.7414389236,-4.5782502384,0.0000000000,-1.3380090546,0.0000000000,0.0000000000,14000000.0000000000,371000.0000000000,335.0000000000,0.0000000000,-0.0011,26.0000000000,15.0000000000,103.0231380442,1.0000000000,69.0000000000,-69.0000000000,70.0000000000,0.0000000000,1.0000000000
2024-10-23 01:07:03.103839,29.9999571491,12.5870000000,6.0000000000,35.7285651228,-78.6998202263,10.0000000000,-0.0168495492,-0.0027797987,1.3688587676,-3.6306471377,0.0000000000,-1.3373216328,0.0000000000,0.0000000000,14000000.0000000000,373000.0000000000,165.0000000000,0.0000000000,-0.0014,26.0000000000,15.0000000000,104.0214254470,1.0000000000,69.0000000000,-69.0000000000,69.0000000000,0.0000000000,1.0000000000
2024-10-23 01:07:04.103881,29.9980585970,12.5870000000,6.0000000000,35.7285753977,-78.6998537242,10.0000000000,0.0893684869,-0.0137777343,0.8480852832,-2.2581623141,0.0000000000,-1.3382312875,0.0000000000,0.0000000000,14000000.0000000000,367000.0000000000,390.0000000000,0.0000000000,-0.0011,25.0000000000,16.0000000000,105.0195323227,1.0000000000,69.0000000000,-69.0000000000,69.0000000000,0.0000000000,1.0000000000
2024-10-23 01:07:05.103892,30.0010000000,12.5870000000,6.0000000000,35.7285803139,-78.6998700399,10.0000000000,0.1255241567,-0.0157529365,0.2449630738,-0.6464524053,0.0000000000,-1.3382573573,0.0000000000,0.0000000000,14000000.0000000000,357000.0000000000,311.0000000000,0.0000000000,-0.001,26.0000000000,16.0000000000,106.0173687112,1.0000000000,69.0000000000,-69.0000000000,70.0000000000,0.0000000000,1.0000000000
2024-10-23 01:07:06.103850,30.0009532590,12.5870000000,6.0000000000,35.7285810891,-78.6998722642,10.0000000000,0.0402729643,-0.0042369497,-0.0404674103,0.1214022309,0.0000000000,-1.3378044023,0.0000000000,0.0000000000,14000000.0000000000,396000.0000000000,113.0000000000,0.0000000000,-0.0015,26.0000000000,15.0000000000,107.0155803435,1.0000000000,69.0000000000,-69.0000000000,69.0000000000,0.0000000000,1.0000000000
2024-10-23 01:07:07.103878,29.9980000000,12.5870000000,6.0000000000,35.7285803904,-78.6998699713,10.0000000000,-0.0015321606,0.0015971836,-0.0694540701,0.2087716577,0.0000000000,-1.3303430741,0.0000000000,0.0000000000,14000000.0000000000,361000.0000000000,172.0000000000,0.0000000000,-0.0018000000000000002,26.0000000000,15.0000000000,108.0136482480,1.0000000000,69.0000000000,-69.0000000000,69.0000000000,0.0000000000,1.0000000000
2024-10-23 01:07:08.103830,29.9980113675,12.5870000000,6.0000000000,35.7285796955,-78.6998678886,10.0000000000,-0.0074723109,-0.0008396310,-0.0296589743,0.1193179485,0.0000000000,-0.7904468974,0.0000000000,0.0000000000,14000000.0000000000,377000.0000000000,168.0000000000,0.0000000000,-0.0018000000000000002,26.0000000000,15.0000000000,109.0113675243,1.0000000000,69.0000000000,-69.0000000000,69.0000000000,0.0000000000,1.0000000000
2024-10-23 01:07:09.103853,29.9989904895,12.5870000000,6.0000000000,35.7285793323,-78.6998668658,10.0000000000,-0.0044639696,-0.0054761095,0.0127441275,0.0686545940,0.0000000000,0.7052843501,0.0000000000,0.0000000000,14000000.0000000000,367000.0000000000,213.0000000000,0.0000000000,-0.0018000000000000002,26.0000000000,16.0000000000,110.0095105429,1.0000000000,69.0000000000,-69.0000000000,69.0000000000,0.0000000000,1.0000000000
2024-10-23 01:07:10.103856,29.9980378503,12.5870000000,6.0000000000,35.7285828559,-78.6998631637,10.0000000000,-0.2805178289,-0.1356698463,1.3547616114,0.9805980800,0.0000000000,1.0756058848,0.0000000000,0.0000000000,14000000.0000000000,384000.0000000000,278.0000000000,0.0000000000,-0.0014,26.0000000000,15.0000000000,111.0075700571,1.0000000000,69.0000000000,-69.0000000000,69.0000000000,0.0000000000,1.0000000000
2024-10-23 01:07:11.103879,30.0030179683,12.5870000000,6.0000000000,35.7286034988,-78.6998451245,10.0000000000,-0.3447418059,0.0478693229,3.2937134487,2.3725754563,0.0000000000,0.4848357733,0.0000000000,0.0000000000,14000000.0000000000,391000.0000000000,57.0000000000,0.0000000000,120u,25.0000000000,15.0000000000,112.0059894333,1.0000000000,69.0000000000,-69.0000000000,70.0000000000,0.0000000000,1.0000000000
2024-10-23 01:07:12.103876,30.0059575163,12.5870000000,6.0000000000,35.7286366555,-78.6998158649,10.0000000000,-0.2308853630,-0.0254383993,3.9107222221,2.8004248366,0.0000000000,0.7454028209,0.0000000000,0.0000000000,14000000.0000000000,372000.0000000000,168.0000000000,0.0000000000,-931u,25.0000000000,16.0000000000,113.0042483655,1.0000000000,68.0000000000,-68.0000000000,70.0000000000,0.0000000000,1.0000000000
2024-10-23 01:07:13.103804,29.9960000000,12.5870000000,6.0000000000,35.7286732045,-78.6997841079,10.0000000000,-0.2189234154,-0.0096384437,4.0800560102,2.9001960358,0.0000000000,0.7315258874,0.0000000000,0.0000000000,14000000.0000000000,401000.0000000000,0.0000000000,0.0000000000,0.0012,26.0000000000,15.0000000000,114.0028005109,1.0000000000,68.0000000000,-68.0000000000,70.0000000000,0.0000000000,1.0000000000
2024-10-23 01:07:14.103837,29.9960011982,12.5870000000,6.0000000000,35.7287104225,-78.6997512801,10.0000000000,-0.2197106873,-0.0010552722,4.1000119821,2.9699820269,0.0000000000,0.6448153850,0.0000000000,0.0000000000,14000000.0000000000,393000.0000000000,113.0000000000,0.0000000000,-747u,26.0000000000,15.0000000000,115.0005991048,1.0000000000,68.0000000000,-68.0000000000,70.0000000000,0.0000000000,1.0000000000
2024-10-23 01:07:15.103834,29.9979988478,12.5870000000,6.0000000000,35.7287478784,-78.6997181191,10.0000000000,-0.2078762809,-0.0168288196,4.1199884782,2.9400172828,0.0000000000,0.7390200150,0.0000000000,0.0000000000,14000000.0000000000,367000.0000000000,113.0000000000,0.0000000000,-0.0012,26.0000000000,15.0000000000,115.9994239082,1.0000000000,68.0000000000,-68.0000000000,70.0000000000,0.0000000000,1.0000000000
2024-10-23 01:07:16.103791,29.9989983528,12.5870000000,6.0000000000,35.7287850387,-78.6996855537,10.0000000000,-0.2122493987,-0.0050870457,4.0900494160,2.9200329440,0.0000000000,0.6796192395,0.0000000000,0.0000000000,14000000.0000000000,376000.0000000000,323.0000000000,0.0000000000,174u,26.0000000000,15.0000000000,116.9983527992,1.0000000000,68.0000000000,-68.0000000000,70.0000000000,0.0000000000,1.0000000000
2024-10-23 01:07:17.103790,29.9990000000,12.5870000000,6.0000000000,35.7288217697,-78.6996533143,10.0000000000,-0.2085868559,-0.0097571860,4.0800354016,2.9100354016,0.0000000000,0.7000389715,0.0000000000,0.0000000000,14000000.0000000000,358000.0000000000,57.0000000000,0.0000000000,-313u,26.0000000000,16.0000000000,117.9964598356,1.0000000000,68.0000000000,-68.0000000000,70.0000000000,0.0000000000,1.0000000000
2024-10-23 01:07:18.103832,30.0019854133,12.5870000000,6.0000000000,35.7288587201,-78.6996209575,10.0000000000,-0.2095365276,-0.0091268767,4.0700486223,2.8900972446,0.0000000000,0.7048647636,0.0000000000,0.0000000000,14000000.0000000000,416000.0000000000,377.0000000000,0.0000000000,434u,26.0000000000,15.0000000000,118.9951377679,1.0000000000,68.0000000000,-68.0000000000,70.0000000000,0.0000000000,1.0000000000
2024-10-23 01:07:19.103762,30.0020000000,12.5870000000,6.0000000000,35.7288952569,-78.6995889132,10.0000000000,-0.2071448283,-0.0067953712,4.0600664078,2.8900000000,0.0000000000,0.6909888333,0.0000000000,0.0000000000,14000000.0000000000,383000.0000000000,113.0000000000,0.0000000000,-141u,26.0000000000,16.0000000000,119.9933592167,1.0000000000,68.0000000000,-68.0000000000,70.0000000000,0.0000000000,1.0000000000
2024-10-23 01:07:20.103840,30.0000173847,12.5870000000,6.0000000000,35.7289318810,-78.6995568790,10.0000000000,-0.2113692422,-0.0094386004,4.0500869234,2.8800869234,0.0000000000,0.7035048056,0.0000000000,0.0000000000,14000000.0000000000,378000.0000000000,57.0000000000,0.0000000000,-242u,26.0000000000,15.0000000000,120.9913076621,1.0000000000,68.0000000000,-68.0000000000,70.0000000000,0.0000000000,1.0000000000
2024-10-23 01:07:21.103840,30.0000000000,12.5870000000,6.0000000000,35.7289683206,-78.6995250316,10.0000000000,-0.2116744526,-0.0081712949,4.0598960464,2.8898960464,0.0000000000,0.6974746716,0.0000000000,0.0000000000,14000000.0000000000,401000.0000000000,380.0000000000,0.0000000000,0.001,26.0000000000,15.0000000000,121.9896046384,1.0000000000,68.0000000000,-68.0000000000,70.0000000000,0.0000000000,1.0000000000
2024-10-23 01:07:22.103726,30.0000000000,12.5870000000,6.0000000000,35.7290049435,-78.6994929005,10.0000000000,-0.2111628177,-0.0080839874,4.0600000000,2.8900000000,0.0000000000,0.6975670958,0.0000000000,0.0000000000,14000000.0000000000,377000.0000000000,390.0000000000,0.0000000000,0.0011,26.0000000000,16.0000000000,122.9875622412,1.0000000000,68.0000000000,-68.0000000000,70.0000000000,0.0000000000,1.0000000000
2024-10-23 01:07:23.103924,29.9990135730,12.5870000000,6.0000000000,35.7290415032,-78.6994609343,10.0000000000,-0.2094189129,-0.0074404889,4.0600000000,2.8900000000,0.0000000000,0.6993615158,0.0000000000,0.0000000000,14000000.0000000000,387000.0000000000,168.0000000000,0.0000000000,-902u,26.0000000000,15.0000000000,123.9864269728,1.0000000000,68.0000000000,-68.0000000000,70.0000000000,0.0000000000,1.0000000000
2024-10-23 01:07:24.103890,29.9999851888,12.5870000000,6.0000000000,35.7290783535,-78.6994286784,10.0000000000,-0.2084480875,-0.0081003352,4.0402962245,2.8801481122,0.0000000000,0.6983115113,0.0000000000,0.0000000000,14000000.0000000000,360000.0000000000,113.0000000000,0.0000000000,0.0015,26.0000000000,16.0000000000,124.9851887762,1.0000000000,67.0000000000,-67.0000000000,71.0000000000,0.0000000000,1.0000000000
2024-10-23 01:07:25.103837,29.9990164804,12.5870000000,6.0000000000,35.7291147985,-78.6993968257,10.0000000000,-0.2090349651,-0.0077399248,4.0400000000,2.8800000000,0.0000000000,0.6990195166,0.0000000000,0.0000000000,14000000.0000000000,383000.0000000000,224.0000000000,0.0000000000,380u,26.0000000000,16.0000000000,125.9835196460,1.0000000000,67.0000000000,-67.0000000000,71.0000000000,0.0000000000,1.0000000000
2024-10-23 01:07:26.103735,30.0009639032,12.5870000000,6.0000000000,35.7291512412,-78.6993649757,10.0000000000,-0.2123590596,-0.0076811070,4.0400000000,2.8800000000,0.0000000000,0.6997376263,0.0000000000,0.0000000000,14000000.0000000000,390000.0000000000,491.0000000000,0.0000000000,-0.0018000000000000002,26.0000000000,15.0000000000,126.9819515764,1.0000000000,67.0000000000,-67.0000000000,71.0000000000,0.0000000000,1.0000000000
2024-10-23 01:07:27.103804,30.0019808169,12.5870000000,6.0000000000,35.7291876017,-78.6993331119,10.0000000000,-0.2128541342,-0.0079398856,4.0596163376,2.8996163376,0.0000000000,0.6979488268,0.0000000000,0.0000000000,14000000.0000000000,399000.0000000000,269.0000000000,0.0000000000,-0.0027,26.0000000000,15.0000000000,127.9808168782,1.0000000000,67.0000000000,-67.0000000000,71.0000000000,0.0000000000,1.0000000000
2024-10-23 01:07:28.103846,30.0000426461,12.5870000000,6.0000000000,35.7292243153,-78.6993009866,10.0000000000,-0.2091752511,-0.0073912008,4.0600000000,2.8902132307,0.0000000000,0.6989501768,0.0000000000,0.0000000000,14000000.0000000000,378000.0000000000,224.0000000000,0.0000000000,-0.0015,26.0000000000,15.0000000000,128.9786769257,1.0000000000,67.0000000000,-67.0000000000,71.0000000000,0.0000000000,1.0000000000
2024-10-23 01:07:29.103853,29.9990223983,12.5870000000,6.0000000000,35.7292610757,-78.6992688212,10.0000000000,-0.2084705967,-0.0073967521,4.0502239829,2.8900000000,0.0000000000,0.6984289897,0.0000000000,0.0000000000,14000000.0000000000,391000.0000000000,224.0000000000,0.0000000000,-885u,26.0000000000,15.0000000000,129.9776017054,1.0000000000,67.0000000000,-67.0000000000,71.0000000000,0.0000000000,1.0000000000
2024-10-23 01:07:30.103788,29.9999756826,12.5870000000,6.0000000000,35.7292976100,-78.6992367806,10.0000000000,-0.2070804421,-0.0079655571,4.0304863478,2.8802431739,0.0000000000,0.6986014065,0.0000000000,0.0000000000,14000000.0000000000,375000.0000000000,271.0000000000,0.0000000000,-65u,26.0000000000,15.0000000000,130.9756826106,1.0000000000,67.0000000000,-67.0000000000,71.0000000000,0.0000000000,1.0000000000
2024-10-23 01:07:31.103875,29.9990261107,12.5870000000,6.0000000000,35.7293340470,-78.6992048355,10.0000000000,-0.2113656433,-0.0076476178,4.0397388932,2.8800000000,0.0000000000,0.6988079063,0.0000000000,0.0000000000,14000000.0000000000,393000.0000000000,168.0000000000,0.0000000000,299u,26.0000000000,15.0000000000,131.9738893180,1.0000000000,67.0000000000,-67.0000000000,71.0000000000,0.0000000000,1.0000000000
2024-10-23 01:07:32.103850,29.9990000000,12.5870000000,6.0000000000,35.7293704865,-78.6991729858,10.0000000000,-0.2112314576,-0.0075912233,4.0497223209,2.8897223209,0.0000000000,0.6986890174,0.0000000000,0.0000000000,14000000.0000000000,379000.0000000000,168.0000000000,0.0000000000,-355u,26.0000000000,15.0000000000,132.9722320906,1.0000000000,67.0000000000,-67.0000000000,71.0000000000,0.0000000000,1.0000000000
2024-10-23 01:07:33.103892,30.0019109232,12.5870000000,6.0000000000,35.7294070133,-78.6991410502,10.0000000000,-0.2118000635,-0.0073867052,4.0597030775,2.8997030775,0.0000000000,0.6987704845,0.0000000000,0.0000000000,14000000.0000000000,401000.0000000000,378.0000000000,0.0000000000,58u,26.0000000000,15.0000000000,133.9703077478,1.0000000000,67.0000000000,-67.0000000000,71.0000000000,0.0000000000,1.0000000000
2024-10-23 01:07:34.103838,30.0020000000,12.5870000000,6.0000000000,35.7294437420,-78.6991089132,10.0000000000,-0.2074382784,-0.0065280894,4.0503146604,2.8903146604,0.0000000000,0.6984203034,0.0000000000,0.0000000000,14000000.0000000000,370000.0000000000,216.0000000000,0.0000000000,837u,25.0000000000,15.0000000000,134.9685339625,1.0000000000,67.0000000000,-67.0000000000,71.0000000000,0.0000000000,1.0000000000
2024-10-23 01:07:35.103716,30.0000673057,12.5870000000,6.0000000000,35.7294801717,-78.6990768803,10.0000000000,-0.2112385489,-0.0080212224,4.0500000000,2.8900000000,0.0000000000,0.6989849451,0.0000000000,0.0000000000,14000000.0000000000,388000.0000000000,168.0000000000,0.0000000000,0.0016,26.0000000000,15.0000000000,135.9663471524,1.0000000000,66.0000000000,-66.0000000000,71.0000000000,0.0000000000,1.0000000000
2024-10-23 01:07:36.103807,29.9990347911,12.5870000000,6.0000000000,35.7295167266,-78.6990449133,10.0000000000,-0.2089340333,-0.0070166081,4.0500000000,2.8900000000,0.0000000000,0.6984583488,0.0000000000,0.0000000000,14000000.0000000000,388000.0000000000,325.0000000000,0.0000000000,-656u,26.0000000000,15.0000000000,136.9652088845,1.0000000000,66.0000000000,-66.0000000000,72.0000000000,0.0000000000,1.0000000000
2024-10-23 01:07:37.103949,29.9990000000,12.5870000000,6.0000000000,35.7295532649,-78.6990130636,10.0000000000,-0.2131546921,-0.0073097158,4.0500000000,2.8900000000,0.0000000000,0.6994050261,0.0000000000,0.0000000000,14000000.0000000000,403000.0000000000,222.0000000000,0.0000000000,-999u,25.0000000000,15.0000000000,137.9635226127,1.0000000000,66.0000000000,-66.0000000000,72.0000000000,0.0000000000,1.0000000000
2024-10-23 01:07:38.103820,29.9990000000,12.5870000000,6.0000000000,35.7295898016,-78.6989810264,10.0000000000,-0.2091409422,-0.0068080495,4.0596179299,2.8996179299,0.0000000000,0.6979296608,0.0000000000,0.0000000000,14000000.0000000000,388000.0000000000,259.0000000000,0.0000000000,30u,26.0000000000,15.0000000000,138.9617929925,1.0000000000,66.0000000000,-66.0000000000,72.0000000000,0.0000000000,1.0000000000
2024-10-23 01:07:39.103846,30.0018790091,12.5870000000,6.0000000000,35.7296264199,-78.6989488986,10.0000000000,-0.2101973261,-0.0071108595,4.0504033029,2.8904033029,0.0000000000,0.6971490979,0.0000000000,0.0000000000,14000000.0000000000,403000.0000000000,224.0000000000,0.0000000000,151u,26.0000000000,15.0000000000,139.9596697107,1.0000000000,66.0000000000,-66.0000000000,72.0000000000,0.0000000000,1.0000000000
2024-10-23 01:07:40.103807,30.0010423131,12.5870000000,6.0000000000,35.7296630471,-78.6989168583,10.0000000000,-0.2059634898,-0.0065107955,4.0500000000,2.8900000000,0.0000000000,0.6988374613,0.0000000000,0.0000000000,14000000.0000000000,365000.0000000000,327.0000000000,0.0000000000,179u,26.0000000000,15.0000000000,140.9576868743,1.0000000000,66.0000000000,-66.0000000000,72.0000000000,0.0000000000,1.0000000000
2024-10-23 01:07:41.103848,30.0000444877,12.5870000000,6.0000000000,35.7296994762,-78.6988849236,10.0000000000,-0.2122226871,-0.0075785001,4.0404448767,2.8804448767,0.0000000000,0.7001397638,0.0000000000,0.0000000000,14000000.0000000000,372000.0000000000,113.0000000000,0.0000000000,-343u,26.0000000000,15.0000000000,141.9555123255,1.0000000000,66.0000000000,-66.0000000000,72.0000000000,0.0000000000,1.0000000000
2024-10-23 01:07:42.103871,30.0000000000,12.5870000000,6.0000000000,35.7297358963,-78.6988530890,10.0000000000,-0.2097621625,-0.0068504157,4.0590664511,2.8990664511,0.0000000000,0.6985016780,0.0000000000,0.0000000000,14000000.0000000000,410000.0000000000,385.0000000000,0.0000000000,-981u,26.0000000000,15.0000000000,142.9533225540,1.0000000000,66.0000000000,-66.0000000000,72.0000000000,0.0000000000,1.0000000000
2024-10-23 01:07:43.103925,29.9990483020,12.5870000000,6.0000000000,35.7297725273,-78.6988210505,10.0000000000,-0.2109339175,-0.0070560305,4.0504830201,2.9000000000,0.0000000000,0.6992387592,0.0000000000,0.0000000000,14000000.0000000000,385000.0000000000,168.0000000000,0.0000000000,-960u,26.0000000000,15.0000000000,143.9516979898,1.0000000000,66.0000000000,-66.0000000000,72.0000000000,0.0000000000,1.0000000000
